stop_id,stop_name,stop_lat,stop_lon,wheelchair_boarding,sa2_code21,sa2_name21,sa4_name21,geometry
200039,"Central Station, Eddy Av, Stand A",-33.8822064874687,151.20666465471,0,117031645,Sydney (South) - Haymarket,Sydney - City and Inner South,POINT (151.20667008309513 -33.88219380417616)
200054,"Central Station, Eddy Av, Stand D",-33.8820421431408,151.20699145565,0,117031645,Sydney (South) - Haymarket,Sydney - City and Inner South,POINT (151.20699688401047 -33.882029459877636)
200060,Central Station,-33.8840842535493,151.206292455081,0,117031645,Sydney (South) - Haymarket,Sydney - City and Inner South,POINT (151.20629788326733 -33.88407157023517)
201510,Redfern Station,-33.8916900512711,151.198866071817,0,117031642,Redfern,Sydney - City and Inner South,POINT (151.19887150004521 -33.89167736731692)
201646,"Redfern Station, Gibbons St, Stand B",-33.8933293130144,151.198881722942,0,117031642,Redfern,Sydney - City and Inner South,POINT (151.19888715094794 -33.893316629073176)
204230,"St Peters Station, King St",-33.9063142029908,151.181117167927,0,117031640,Newtown (NSW),Sydney - City and Inner South,POINT (151.18112259673427 -33.906301517482895)
204311,King St Opp St Peters Station,-33.9064227004899,151.181371008764,0,117031330,Erskineville - Alexandria,Sydney - City and Inner South,POINT (151.18137643752033 -33.90641001500642)
204313,Erskineville Rd At Charles St,-33.8997132561368,151.184727384289,0,117031330,Erskineville - Alexandria,Sydney - City and Inner South,POINT (151.18473281346488 -33.899700570919414)
204320,Erskineville Rd At Prospect St,-33.8996853464514,151.183958865838,0,117031330,Erskineville - Alexandria,Sydney - City and Inner South,POINT (151.18396429512768 -33.89967266116212)
204410,St Peters Station,-33.9072729813888,151.180742630338,0,117021328,Sydenham - Tempe - St Peters,Sydney - City and Inner South,POINT (151.18074805907028 -33.907260295852666)
204420,Sydenham Station,-33.914744895685,151.166064870029,0,117021328,Sydenham - Tempe - St Peters,Sydney - City and Inner South,POINT (151.16607029986204 -33.91473220883251)
204424,Princes Hwy After Gannon St,-33.9248434613655,151.160526263987,0,117021328,Sydenham - Tempe - St Peters,Sydney - City and Inner South,POINT (151.16053169325968 -33.92483077406751)
204442,Princes Hwy At Fanning St,-33.924336037387,151.161409442477,0,117021328,Sydenham - Tempe - St Peters,Sydney - City and Inner South,POINT (151.16141487169108 -33.924323350167754)
2076119,Malsbury Rd Opp Normanhurst Station,-33.7203735971993,151.097147590855,0,121021406,Normanhurst - Thornleigh - Westleigh,Sydney - North Sydney and Hornsby,POINT (151.09715305649888 -33.720360902567485)
207620,Normanhurst Station,-33.7208266271426,151.097072104535,0,121021406,Normanhurst - Thornleigh - Westleigh,Sydney - North Sydney and Hornsby,POINT (151.09707757012933 -33.720813932506964)
207652,"Normanhurst Station, Malsbury Rd",-33.7208704284853,151.096567397243,0,121021406,Normanhurst - Thornleigh - Westleigh,Sydney - North Sydney and Hornsby,POINT (151.09657286290334 -33.720857733803065)
207720,Hornsby Station,-33.7034747936335,151.098359728641,0,121021577,Hornsby - East,Sydney - North Sydney and Hornsby,POINT (151.09836519636136 -33.703462098995495)
2077277,"Hornsby Station, George St",-33.703567008899,151.098838462491,0,121021577,Hornsby - East,Sydney - North Sydney and Hornsby,POINT (151.098843930131 -33.70355431430613)
207760,"Hornsby Station, Stand D",-33.7033664270727,151.098095839332,0,121021578,Hornsby - West,Sydney - North Sydney and Hornsby,POINT (151.09810130710426 -33.7033537324094)
212010,Thornleigh Station,-33.7318969534448,151.078155078868,0,121021406,Normanhurst - Thornleigh - Westleigh,Sydney - North Sydney and Hornsby,POINT (151.07816054568175 -33.73188425712951)
212051,The Esplanade Opp Thornleigh Station,-33.7314553253403,151.077886114363,0,121021406,Normanhurst - Thornleigh - Westleigh,Sydney - North Sydney and Hornsby,POINT (151.0778915812738 -33.731442628996916)
212052,"Thornleigh Station, The Esplanade",-33.7316234076858,151.07798035267,0,121021406,Normanhurst - Thornleigh - Westleigh,Sydney - North Sydney and Hornsby,POINT (151.07798581954503 -33.73161071135236)
213510,Strathfield Station,-33.8716720139339,151.094285645918,0,120031680,Strathfield - East,Sydney - Inner West,POINT (151.09429109179706 -33.871659320098445)
213511,"Strathfield Station, Everton Rd, Stand D",-33.8712286968075,151.094340056165,0,120031680,Strathfield - East,Sydney - Inner West,POINT (151.0943455020955 -33.87121600297399)
213563,"Strathfield Station, Albert Rd, Stand F",-33.8717575947145,151.09360922012,0,120031680,Strathfield - East,Sydney - Inner West,POINT (151.09361466608448 -33.87174490081678)
2137112,"Concord Fire Station, Concord Rd",-33.8581249188743,151.092255519693,0,120011672,Concord West - North Strathfield,Sydney - Inner West,POINT (151.09226096767168 -33.85811222475519)
213718,Concord Rd Opp Concord Fire Station,-33.8586758300849,151.092217040691,0,120011672,Concord West - North Strathfield,Sydney - Inner West,POINT (151.09222248860164 -33.858663135966076)
213820,Rhodes Station,-33.8304918906223,151.087049334924,0,120011673,Rhodes,Sydney - Inner West,POINT (151.0870547873349 -33.830479195825625)
213828,Concord Rd At Nirranda St,-33.8487550588502,151.08978852917,0,120011672,Concord West - North Strathfield,Sydney - Inner West,POINT (151.0897939787524 -33.848742364436156)
213835,Concord Rd Before Victoria Av,-33.8480630361322,151.08946392675,0,120011672,Concord West - North Strathfield,Sydney - Inner West,POINT (151.08946937647116 -33.848050341683134)
213858,"Rhodes Station, Blaxland Rd",-33.830689854863,151.087328689523,0,120011673,Rhodes,Sydney - Inner West,POINT (151.08733414186756 -33.83067716009368)
213879,Blaxland Rd Opp Rhodes Station,-33.8306121589844,151.087497732926,0,120011673,Rhodes,Sydney - Inner West,POINT (151.0875031852568 -33.83059946423023)
219310,Hurlstone Park Station,-33.9102017864647,151.132483806583,0,120031392,Canterbury (North) - Ashbury,Sydney - Inner West,POINT (151.13248924183776 -33.91018909645215)
2193108,"Canterbury Station, Canterbury Rd, Stand G",-33.9123217538866,151.118980446772,0,120031392,Canterbury (North) - Ashbury,Sydney - Inner West,POINT (151.11898588367853 -33.91230906263226)
219311,"Hurlstone Park Station, Floss St",-33.9101467254931,151.132513564325,0,120031392,Canterbury (North) - Ashbury,Sydney - Inner West,POINT (151.13251899958286 -33.91013403548294)
219312,Floss St Opp Hurlstone Park Station,-33.9101754553742,151.132731084645,0,120031392,Canterbury (North) - Ashbury,Sydney - Inner West,POINT (151.13273651986788 -33.91016276538449)
219320,Canterbury Station,-33.9120868218575,151.118731373859,0,120031392,Canterbury (North) - Ashbury,Sydney - Inner West,POINT (151.11873681083264 -33.91207413057835)
219321,"Canterbury Station, Canterbury Rd, Stand E",-33.9123880162812,151.118616204748,0,120031392,Canterbury (North) - Ashbury,Sydney - Inner West,POINT (151.11862164169787 -33.91237532499344)
219377,Canterbury Rd At Tincombe St,-33.9118988340183,151.119770580196,0,120031392,Canterbury (North) - Ashbury,Sydney - Inner West,POINT (151.11977601704584 -33.91188614283451)
220310,Dulwich Hill Station,-33.9110707257574,151.141203564311,0,120031394,Dulwich Hill - Lewisham,Sydney - Inner West,POINT (151.14120899819963 -33.91105803656281)
220410,Marrickville Station,-33.9138683970484,151.153356460059,0,117021637,Marrickville - South,Sydney - City and Inner South,POINT (151.15336189183097 -33.9138557090054)
2204101,"Marrickville Station, Illawarra Rd",-33.9138696063359,151.153053924768,0,117021637,Marrickville - South,Sydney - City and Inner South,POINT (151.15305935658316 -33.913856918264734)
2204102,Illawarra Rd Opp Marrickville Station,-33.9144765293642,151.152424190297,0,117021637,Marrickville - South,Sydney - City and Inner South,POINT (151.15242962212108 -33.9144638412386)
2204125,"Sydenham Station, Railway Pde, Stand C",-33.9142612072023,151.166246622717,0,117021328,Sydenham - Tempe - St Peters,Sydney - City and Inner South,POINT (151.16625205258893 -33.91424852036337)
220432,Dudley St Opp Dulwich Hill Station,-33.9114797914353,151.141363870507,0,117021637,Marrickville - South,Sydney - City and Inner South,POINT (151.14136930431786 -33.91146710225849)
220433,"Dulwich Hill Station, Dudley St",-33.9113942915588,151.142029741744,0,117021637,Marrickville - South,Sydney - City and Inner South,POINT (151.14203517547088 -33.911381602443406)
220439,"Sydenham Station, Railway Pde, Stand D",-33.9143757294288,151.166057680928,0,117021328,Sydenham - Tempe - St Peters,Sydney - City and Inner South,POINT (151.16606311081162 -33.91436304257306)
220450,"Sydenham Station, Railway Pde, Stand E",-33.9141290600617,151.166423897862,0,117021328,Sydenham - Tempe - St Peters,Sydney - City and Inner South,POINT (151.16642932772623 -33.914116373238365)
G204313,Erskineville Rd At Charles St,-33.8997323472529,151.184695903691,0,117031330,Erskineville - Alexandria,Sydney - City and Inner South,POINT (151.1847013328688 -33.89971966203271)
G204320,Erskineville Rd At Prospect St,-33.8996857134596,151.183948078829,0,117031330,Erskineville - Alexandria,Sydney - City and Inner South,POINT (151.18395350812014 -33.89967302816932)
G204424,Princes Hwy After Gannon St,-33.9248438265587,151.160515473484,0,117021328,Sydenham - Tempe - St Peters,Sydney - City and Inner South,POINT (151.16052090275815 -33.924831139259695)
G204442,Princes Hwy At Fanning St,-33.9243450325645,151.161409880643,0,117021328,Sydenham - Tempe - St Peters,Sydney - City and Inner South,POINT (151.16141530985578 -33.924332345345384)
G2137112,"Concord Fire Station, Concord Rd",-33.8581249188743,151.092255519693,0,120011672,Concord West - North Strathfield,Sydney - Inner West,POINT (151.09226096767168 -33.85811222475519)
G213718,"Concord Fire Station, Concord Rd",-33.8586761886794,151.092206257587,0,120011672,Concord West - North Strathfield,Sydney - Inner West,POINT (151.09221170549915 -33.858663494559586)
G213828,Concord Rd At Nirranda St,-33.8487550588502,151.08978852917,0,120011672,Concord West - North Strathfield,Sydney - Inner West,POINT (151.0897939787524 -33.848742364436156)
G213835,Concord Rd Before Victoria Av,-33.8480630361322,151.08946392675,0,120011672,Concord West - North Strathfield,Sydney - Inner West,POINT (151.08946937647116 -33.848050341683134)
G219377,Canterbury Rd At Tincombe St,-33.9118988340183,151.119770580196,0,120031392,Canterbury (North) - Ashbury,Sydney - Inner West,POINT (151.11977601704584 -33.91188614283451)
200020,Circular Quay,-33.8613509430835,151.210813019737,1,117031644,Sydney (North) - Millers Point,Sydney - City and Inner South,POINT (151.21081845032805 -33.861338260032106)
200030,Martin Place Station,-33.8678467244384,151.211348512476,1,117031644,Sydney (North) - Millers Point,Sydney - City and Inner South,POINT (151.21135394211868 -33.86783404148259)
2000321,"Central Station, Platform 1",-33.8827026104032,151.205857239232,1,117031645,Sydney (South) - Haymarket,Sydney - City and Inner South,POINT (151.20586266766605 -33.88268992703875)
2000322,"Central Station, Platform 2",-33.8827514159554,151.206010876138,1,117031645,Sydney (South) - Haymarket,Sydney - City and Inner South,POINT (151.20601630454357 -33.88273873260563)
2000323,"Central Station, Platform 3",-33.8827675614993,151.206065683333,1,117031645,Sydney (South) - Haymarket,Sydney - City and Inner South,POINT (151.20607111172856 -33.882754878154756)
2000324,"Central Station, Platform 4",-33.8833250903178,151.205833824408,1,117031645,Sydney (South) - Haymarket,Sydney - City and Inner South,POINT (151.20583925276185 -33.88331240695552)
2000325,"Central Station, Platform 5",-33.8833505994121,151.205878289466,1,117031645,Sydney (South) - Haymarket,Sydney - City and Inner South,POINT (151.20588371781005 -33.883337916054145)
2000326,"Central Station, Platform 6",-33.8834181318625,151.206011242623,1,117031645,Sydney (South) - Haymarket,Sydney - City and Inner South,POINT (151.206016670939 -33.88340544851744)
2000327,"Central Station, Platform 7",-33.8834436408845,151.206055707779,1,117031645,Sydney (South) - Haymarket,Sydney - City and Inner South,POINT (151.2060611360852 -33.88343095754378)
2000328,"Central Station, Platform 8",-33.883511541921,151.206177876543,1,117031645,Sydney (South) - Haymarket,Sydney - City and Inner South,POINT (151.2061833048226 -33.883498858592155)
2000329,"Central Station, Platform 9",-33.8834722438006,151.206273169726,1,117031645,Sydney (South) - Haymarket,Sydney - City and Inner South,POINT (151.20627859799723 -33.88345956048038)
2000330,"Central Station, Platform 10",-33.8836218347112,151.206377749266,1,117031645,Sydney (South) - Haymarket,Sydney - City and Inner South,POINT (151.2063831775022 -33.88360915140179)
2000331,"Central Station, Platform 11",-33.8836106270638,151.206442015105,1,117031645,Sydney (South) - Haymarket,Sydney - City and Inner South,POINT (151.20644744333353 -33.883597943760314)
2000332,"Central Station, Platform 12",-33.8837156130432,151.206533599267,1,117031645,Sydney (South) - Haymarket,Sydney - City and Inner South,POINT (151.2065390274683 -33.883702929749006)
2000336,"Central Station, Platform 16",-33.8840680247496,151.2067669833,1,117031645,Sydney (South) - Haymarket,Sydney - City and Inner South,POINT (151.20677241142062 -33.88405534147967)
2000337,"Central Station, Platform 17",-33.8841021593045,151.206822676011,1,117031645,Sydney (South) - Haymarket,Sydney - City and Inner South,POINT (151.20682810411907 -33.88408947604)
2000338,"Central Station, Platform 18",-33.884216508501,151.206903918738,1,117031645,Sydney (South) - Haymarket,Sydney - City and Inner South,POINT (151.2069093468191 -33.884203825244896)
2000339,"Central Station, Platform 19",-33.8841963058392,151.206967742632,1,117031645,Sydney (South) - Haymarket,Sydney - City and Inner South,POINT (151.20697317070665 -33.884183622588914)
2000340,"Central Station, Platform 20",-33.8842563177728,151.207057116622,1,117031645,Sydney (South) - Haymarket,Sydney - City and Inner South,POINT (151.2070625446758 -33.88424363453127)
2000341,"Central Station, Platform 21",-33.8842810885781,151.207123152013,1,117031645,Sydney (South) - Haymarket,Sydney - City and Inner South,POINT (151.20712858005402 -33.88426840534293)
2000342,"Central Station, Platform 22",-33.8843317367759,151.207222868637,1,117031645,Sydney (South) - Haymarket,Sydney - City and Inner South,POINT (151.20722829665695 -33.884319053550385)
2000343,"Central Station, Platform 23",-33.8844216838546,151.207227291792,1,117031645,Sydney (South) - Haymarket,Sydney - City and Inner South,POINT (151.20723271979924 -33.884409000630136)
2000344,"Central Station, Platform 24",-33.8844064177011,151.207410190451,1,117031645,Sydney (South) - Haymarket,Sydney - City and Inner South,POINT (151.20741561843414 -33.88439373449361)
2000345,"Central Station, Platform 25",-33.8845549006032,151.207547127536,1,117031336,Surry Hills,Sydney - City and Inner South,POINT (151.2075525554796 -33.88454221740954)
2000351,"Circular Quay Station, Platform 1",-33.8613686537387,151.210295492397,1,117031644,Sydney (North) - Millers Point,Sydney - City and Inner South,POINT (151.21030092305963 -33.861355970639096)
2000352,"Circular Quay Station, Platform 2",-33.8612506157136,151.210322088535,1,117031644,Sydney (North) - Millers Point,Sydney - City and Inner South,POINT (151.21032751920967 -33.861237932615644)
2000361,"Martin Place Station, Platform 1",-33.8679211680579,151.21180580772,1,117031644,Sydney (North) - Millers Point,Sydney - City and Inner South,POINT (151.2118112372873 -33.867908485145314)
2000362,"Martin Place Station, Platform 2",-33.8678034989456,151.211821620176,1,117031644,Sydney (North) - Millers Point,Sydney - City and Inner South,POINT (151.21182704975683 -33.86779081603366)
2000371,"Museum Station, Platform 1",-33.876152660443,151.209802055193,1,117031644,Sydney (North) - Millers Point,Sydney - City and Inner South,POINT (151.20980748394194 -33.87613997740098)
2000372,"Museum Station, Platform 2",-33.8761553811921,151.209985820362,1,117031644,Sydney (North) - Millers Point,Sydney - City and Inner South,POINT (151.2099912490843 -33.87614269816728)
2000381,"St James Station, Platform 1",-33.8706629330113,151.211724684041,1,117031644,Sydney (North) - Millers Point,Sydney - City and Inner South,POINT (151.21173011325186 -33.87065025011039)
2000382,"St James Station, Platform 2",-33.8706829027625,151.211930888233,1,117031644,Sydney (North) - Millers Point,Sydney - City and Inner South,POINT (151.2119363174117 -33.87067021988098)
2000391,"Town Hall Station, Platform 1",-33.8736468928067,151.206935214658,1,117031644,Sydney (North) - Millers Point,Sydney - City and Inner South,POINT (151.20694064415335 -33.8736342094794)
2000392,"Town Hall Station, Platform 2",-33.8735610019639,151.206812176154,1,117031644,Sydney (North) - Millers Point,Sydney - City and Inner South,POINT (151.20681760567848 -33.873548318624515)
2000393,"Town Hall Station, Platform 3",-33.8736542680685,151.206719546326,1,117031644,Sydney (North) - Millers Point,Sydney - City and Inner South,POINT (151.20672497585124 -33.87364158472111)
2000394,"Town Hall Station, Platform 4",-33.8735907117978,151.206997262467,1,117031644,Sydney (North) - Millers Point,Sydney - City and Inner South,POINT (151.20700269196107 -33.873578028475904)
2000395,"Town Hall Station, Platform 5",-33.8737289516645,151.206906843349,1,117031644,Sydney (North) - Millers Point,Sydney - City and Inner South,POINT (151.2069122728374 -33.87371626833513)
2000396,"Town Hall Station, Platform 6",-33.8736164453732,151.206771695059,1,117031644,Sydney (North) - Millers Point,Sydney - City and Inner South,POINT (151.20677712458183 -33.87360376203042)
200040,Museum Station,-33.875571095497,151.209946276726,1,117031644,Sydney (North) - Millers Point,Sydney - City and Inner South,POINT (151.20995170553238 -33.87555841246439)
2000403,"Wynyard Station, Platform 3",-33.865894094459,151.205744182289,1,117031644,Sydney (North) - Millers Point,Sydney - City and Inner South,POINT (151.2057496129951 -33.865881410966104)
2000404,"Wynyard Station, Platform 4",-33.8658970431842,151.205657922632,1,117031644,Sydney (North) - Millers Point,Sydney - City and Inner South,POINT (151.20566335335008 -33.865884359683285)
2000405,"Wynyard Station, Platform 5",-33.8658702073279,151.205915817825,1,117031644,Sydney (North) - Millers Point,Sydney - City and Inner South,POINT (151.20592124850978 -33.86585752385088)
2000406,"Wynyard Station, Platform 6",-33.865881413717,151.205851564979,1,117031644,Sydney (North) - Millers Point,Sydney - City and Inner South,POINT (151.2058569956715 -33.865868730234055)
200050,St James Station,-33.8701472831878,151.211785721754,1,117031644,Sydney (North) - Millers Point,Sydney - City and Inner South,POINT (151.21179115102538 -33.87013460028896)
200070,Town Hall Station,-33.8735389560829,151.206929909395,1,117031644,Sydney (North) - Millers Point,Sydney - City and Inner South,POINT (151.20693533890562 -33.87352627275436)
200080,Wynyard Station,-33.865944893566,151.206103096474,1,117031644,Sydney (North) - Millers Point,Sydney - City and Inner South,POINT (151.20610852712196 -33.86593221010698)
201110,Kings Cross Station,-33.8744834259457,151.222228200568,1,117031333,Potts Point - Woolloomooloo,Sydney - City and Inner South,POINT (151.22223362776376 -33.874470744052815)
201171,"Kings Cross Station, Platform 1",-33.874327333426,151.221788438249,1,117031333,Potts Point - Woolloomooloo,Sydney - City and Inner South,POINT (151.22179386552858 -33.87431465149093)
201172,"Kings Cross Station, Platform 2",-33.8742535265972,151.221838805269,1,117031333,Potts Point - Woolloomooloo,Sydney - City and Inner South,POINT (151.22184423255126 -33.87424084466632)
2015111,"Green Square Station, Platform 1",-33.9060706585781,151.202533035061,1,117031330,Erskineville - Alexandria,Sydney - City and Inner South,POINT (151.20253846083344 -33.90605797506707)
2015112,"Green Square Station, Platform 2",-33.9061130513325,151.202610758916,1,117031330,Erskineville - Alexandria,Sydney - City and Inner South,POINT (151.2026161846716 -33.90610036782901)
2015121,"Macdonaldtown Station, Platform 1",-33.8969103256996,151.185811140429,2,117031642,Redfern,Sydney - City and Inner South,POINT (151.1858165698257 -33.89689764056367)
2015122,"Macdonaldtown Station, Platform 2",-33.8969459383021,151.185823688174,2,117031642,Redfern,Sydney - City and Inner South,POINT (151.18582911756414 -33.896933253167596)
2015131,"Redfern Station, Platform 1",-33.8917598534298,151.198404931445,2,117031642,Redfern,Sydney - City and Inner South,POINT (151.19841035972985 -33.89174716943307)
2015132,"Redfern Station, Platform 2",-33.8918116130136,151.198472295433,2,117031642,Redfern,Sydney - City and Inner South,POINT (151.19847772370127 -33.89179892902352)
2015133,"Redfern Station, Platform 3",-33.8918374927891,151.198505977457,2,117031642,Redfern,Sydney - City and Inner South,POINT (151.19851140571697 -33.89182480880235)
2015134,"Redfern Station, Platform 4",-33.891879889296,151.19858368586,2,117031642,Redfern,Sydney - City and Inner South,POINT (151.19858911410316 -33.8918672053168)
2015135,"Redfern Station, Platform 5",-33.8919230221903,151.198639822678,2,117031642,Redfern,Sydney - City and Inner South,POINT (151.19864525090733 -33.89191033821663)
2015136,"Redfern Station, Platform 6",-33.8919740451682,151.198728758603,1,117031642,Redfern,Sydney - City and Inner South,POINT (151.1987341868128 -33.8919613612032)
2015137,"Redfern Station, Platform 7",-33.8919991883966,151.198784012441,1,117031642,Redfern,Sydney - City and Inner South,POINT (151.19878944063947 -33.89198650443694)
2015138,"Redfern Station, Platform 8",-33.892050211257,151.198872948526,2,117031642,Redfern,Sydney - City and Inner South,POINT (151.1988783767049 -33.89203752730601)
2015139,"Redfern Station, Platform 9",-33.8920929757508,151.198939871444,2,117031642,Redfern,Sydney - City and Inner South,POINT (151.19894529960757 -33.89208029180634)
2015140,"Redfern Station, Platform 10",-33.8921526250176,151.199040035151,2,117031642,Redfern,Sydney - City and Inner South,POINT (151.19904546329224 -33.89213994108292)
2015141,"Redfern Station, Platform 11",-33.8922888080166,151.199273603789,2,117031642,Redfern,Sydney - City and Inner South,POINT (151.19927903187852 -33.892276124104676)
2015142,"Redfern Station, Platform 12",-33.892321840901,151.199361657203,2,117031642,Redfern,Sydney - City and Inner South,POINT (151.1993670852755 -33.89230915699752)
201520,Macdonaldtown Station,-33.8969593389246,151.185694688756,0,117031642,Redfern,Sydney - City and Inner South,POINT (151.18570011816283 -33.89694665377816)
201710,Green Square Station,-33.9060486134087,151.202650813781,1,117031330,Erskineville - Alexandria,Sydney - City and Inner South,POINT (151.20265623953952 -33.90603592990852)
202010,Mascot Station,-33.9231763737873,151.1873353984,1,117011635,Mascot,Sydney - City and Inner South,POINT (151.18734082405305 -33.923163688977645)
2020101,"International Airport Station, Platform 1",-33.9349169396224,151.165838044172,1,117011325,Sydney Airport,Sydney - City and Inner South,POINT (151.1658434713316 -33.93490425289006)
2020102,"International Airport Station, Platform 2",-33.935008353748,151.165799265394,1,117011325,Sydney Airport,Sydney - City and Inner South,POINT (151.16580469254694 -33.9349956670127)
2020111,"Mascot Station, Platform 1",-33.9231804165273,151.187216709235,1,117011635,Mascot,Sydney - City and Inner South,POINT (151.18722213490452 -33.9231677317066)
2020112,"Mascot Station, Platform 2",-33.9231853686684,151.187335839272,1,117011635,Mascot,Sydney - City and Inner South,POINT (151.18734126492376 -33.923172683858844)
202020,Sydney Domestic Airport Station,-33.9337438406596,151.180751775356,1,117011325,Sydney Airport,Sydney - City and Inner South,POINT (151.18075720053415 -33.933731155309765)
202030,Sydney International Airport Station,-33.9346164433934,151.165931480299,1,117011325,Sydney Airport,Sydney - City and Inner South,POINT (151.16593690748553 -33.93460375666767)
202091,"Domestic Airport Station, Platform 1",-33.9335718356187,151.180775782625,1,117011325,Sydney Airport,Sydney - City and Inner South,POINT (151.18078120782283 -33.93355915026989)
202092,"Domestic Airport Station, Platform 2",-33.9336812431169,151.180737901538,1,117011325,Sydney Airport,Sydney - City and Inner South,POINT (151.18074332672657 -33.93366855776533)
204210,Newtown Station,-33.8979130089729,151.179377370376,1,117031640,Newtown (NSW),Sydney - City and Inner South,POINT (151.1793828005595 -33.89790032324384)
204261,"Newtown Station, Platform 1",-33.8978788880614,151.179851112249,1,117031640,Newtown (NSW),Sydney - City and Inner South,POINT (151.17985654236927 -33.89786620237627)
204262,"Newtown Station, Platform 2",-33.897941853091,151.179854189917,1,117031640,Newtown (NSW),Sydney - City and Inner South,POINT (151.17985962002837 -33.897929167406595)
204310,Erskineville Station,-33.900182647139,151.185495903052,0,117031330,Erskineville - Alexandria,Sydney - City and Inner South,POINT (151.1855013320548 -33.9001699619966)
204331,"Erskineville Station, Platform 1",-33.900278470764,151.185327713009,2,117031330,Erskineville - Alexandria,Sydney - City and Inner South,POINT (151.18533314202304 -33.90026578560658)
204332,"Erskineville Station, Platform 2",-33.9002931563916,151.185425677174,2,117031330,Erskineville - Alexandria,Sydney - City and Inner South,POINT (151.18543110617208 -33.90028047124343)
204333,"Erskineville Station, Platform 3",-33.9003093105374,151.185480493096,2,117031330,Erskineville - Alexandria,Sydney - City and Inner South,POINT (151.18548592208404 -33.900296625394446)
204334,"Erskineville Station, Platform 4",-33.9003333581293,151.185568110549,2,117031330,Erskineville - Alexandria,Sydney - City and Inner South,POINT (151.18557353952127 -33.900320672994695)
204430,Tempe Station,-33.9239040725931,151.156600378825,0,117021328,Sydenham - Tempe - St Peters,Sydney - City and Inner South,POINT (151.1566058087865 -33.92389138492266)
204461,"St Peters Station, Platform 1",-33.9072202865011,151.180437486803,2,117031640,Newtown (NSW),Sydney - City and Inner South,POINT (151.18044291558604 -33.90720760093614)
204462,"St Peters Station, Platform 2",-33.907300141033,151.180473809805,2,117021328,Sydenham - Tempe - St Peters,Sydney - City and Inner South,POINT (151.18047923857213 -33.907287455471966)
204463,"St Peters Station, Platform 3",-33.907388990531,151.180510572774,2,117021328,Sydenham - Tempe - St Peters,Sydney - City and Inner South,POINT (151.18051600152398 -33.907376304974015)
204464,"St Peters Station, Platform 4",-33.9074868349937,151.180547775727,2,117021328,Sydenham - Tempe - St Peters,Sydney - City and Inner South,POINT (151.18055320445853 -33.90747414944089)
204473,"Sydenham Station, Platform 3",-33.9145771337702,151.166229603226,1,117021328,Sydenham - Tempe - St Peters,Sydney - City and Inner South,POINT (151.16623503305794 -33.9145644469319)
204474,"Sydenham Station, Platform 4",-33.9146828818004,151.166299600236,1,117021328,Sydenham - Tempe - St Peters,Sydney - City and Inner South,POINT (151.16630503004373 -33.91467019496937)
204475,"Sydenham Station, Platform 5",-33.9147440197133,151.166356615635,1,117021328,Sydenham - Tempe - St Peters,Sydney - City and Inner South,POINT (151.16636204542638 -33.914731332887996)
204476,"Sydenham Station, Platform 6",-33.9148576659265,151.16645941898,1,117021328,Sydenham - Tempe - St Peters,Sydney - City and Inner South,POINT (151.16646484874138 -33.91484497911158)
204483,"Tempe Station, Platform 3",-33.9241293182604,151.156600529751,2,117021328,Sydenham - Tempe - St Peters,Sydney - City and Inner South,POINT (151.1566059596823 -33.924116630591556)
204484,"Tempe Station, Platform 4",-33.9241436602461,151.156709309746,2,117021328,Sydenham - Tempe - St Peters,Sydney - City and Inner South,POINT (151.15671473965978 -33.92413097258749)
204810,Stanmore Station,-33.8944742355915,151.16414802871,0,117021327,Petersham - Stanmore,Sydney - City and Inner South,POINT (151.1641534615355 -33.89446154841829)
204832,"Stanmore Station, Platform 2",-33.8945419497729,151.164010868177,2,117021327,Petersham - Stanmore,Sydney - City and Inner South,POINT (151.16401630101302 -33.89452926258738)
204833,"Stanmore Station, Platform 3",-33.894631171252,151.164036820961,2,117021327,Petersham - Stanmore,Sydney - City and Inner South,POINT (151.1640422537814 -33.89461848406951)
204910,Petersham Station,-33.8938633052507,151.155572040209,1,117021327,Petersham - Stanmore,Sydney - City and Inner South,POINT (151.15557747434445 -33.89385061727396)
204920,Lewisham Station,-33.8934170262598,151.147706406683,0,120031394,Dulwich Hill - Lewisham,Sydney - Inner West,POINT (151.1477118420047 -33.89340433754713)
204981,"Lewisham Station, Platform 1",-33.8932825579774,151.147418972931,2,120031394,Dulwich Hill - Lewisham,Sydney - Inner West,POINT (151.1474244083119 -33.89326986923703)
204982,"Lewisham Station, Platform 2",-33.893364607668,151.147390538455,2,120031394,Dulwich Hill - Lewisham,Sydney - Inner West,POINT (151.14739597382896 -33.89335191892555)
204991,"Petersham Station, Platform 1",-33.8938709588753,151.155345520147,1,117021327,Petersham - Stanmore,Sydney - City and Inner South,POINT (151.1553509543139 -33.893858270877494)
204992,"Petersham Station, Platform 2",-33.8939421923049,151.15537058973,1,117021327,Petersham - Stanmore,Sydney - City and Inner South,POINT (151.15537602388378 -33.89392950430994)
206010,North Sydney Station,-33.8411500483648,151.207412328748,1,121041417,North Sydney - Lavender Bay,Sydney - North Sydney and Hornsby,POINT (151.20741776253507 -33.841137364854085)
2060101,"North Sydney Station, Platform 1",-33.841173347575,151.207521446863,1,121041417,North Sydney - Lavender Bay,Sydney - North Sydney and Hornsby,POINT (151.20752688063138 -33.841160664074636)
2060102,"North Sydney Station, Platform 2",-33.8412186899264,151.207512875671,1,121041417,North Sydney - Lavender Bay,Sydney - North Sydney and Hornsby,POINT (151.20751830943448 -33.841206006425544)
2060103,"North Sydney Station, Platform 3",-33.8411985560675,151.207047597917,1,121041417,North Sydney - Lavender Bay,Sydney - North Sydney and Hornsby,POINT (151.2070530317497 -33.841185872523056)
2060104,"North Sydney Station, Platform 4",-33.8412438984049,151.207039026468,1,121041417,North Sydney - Lavender Bay,Sydney - North Sydney and Hornsby,POINT (151.20704446029583 -33.841231214859974)
2060111,"Waverton Station, Platform 1",-33.8378114094005,151.197531107107,1,121041414,Crows Nest - Waverton,Sydney - North Sydney and Hornsby,POINT (151.1975365427532 -33.8377987249438)
2060112,"Waverton Station, Platform 2",-33.8378330752205,151.197424197703,1,121041414,Crows Nest - Waverton,Sydney - North Sydney and Hornsby,POINT (151.19742963336157 -33.837820390753976)
206020,Waverton Station,-33.8376183006616,151.197381288364,1,121041414,Crows Nest - Waverton,Sydney - North Sydney and Hornsby,POINT (151.19738672405748 -33.83760561618956)
206110,Milsons Point Station,-33.8459361020109,151.211836965459,1,121041417,North Sydney - Lavender Bay,Sydney - North Sydney and Hornsby,POINT (151.21184239797202 -33.845923418946995)
206141,"Milsons Point Station, Platform 1",-33.8457659403762,151.211807004791,1,121041417,North Sydney - Lavender Bay,Sydney - North Sydney and Hornsby,POINT (151.2118124373311 -33.84575325730829)
206142,"Milsons Point Station, Platform 2",-33.8457865123066,151.211732430176,1,121041417,North Sydney - Lavender Bay,Sydney - North Sydney and Hornsby,POINT (151.211737862724 -33.845773829231874)
206410,Artarmon Station,-33.808542405208,151.184700888768,1,121011682,Artarmon,Sydney - North Sydney and Hornsby,POINT (151.18470633016685 -33.808529719348556)
206451,"Artarmon Station, Platform 1",-33.8085668269509,151.184777633712,1,121011682,Artarmon,Sydney - North Sydney and Hornsby,POINT (151.18478307509662 -33.80855414109878)
206452,"Artarmon Station, Platform 2",-33.8086042721226,151.184736286314,1,121011682,Artarmon,Sydney - North Sydney and Hornsby,POINT (151.1847417276995 -33.808591586266886)
206510,Wollstonecraft Station,-33.831944794515,151.191748505037,1,121041414,Crows Nest - Waverton,Sydney - North Sydney and Hornsby,POINT (151.19175394229535 -33.831932109477435)
2065152,"St Leonards Station, Platform 2",-33.821996565534,151.194166065248,1,121011401,St Leonards - Naremburn,Sydney - North Sydney and Hornsby,POINT (151.19417150349406 -33.82198388065222)
2065153,"St Leonards Station, Platform 3",-33.8220006042854,151.194047517091,1,121011401,St Leonards - Naremburn,Sydney - North Sydney and Hornsby,POINT (151.19405295535347 -33.82198791939257)
2065161,"Wollstonecraft Station, Platform 1",-33.8320055569499,151.191816254153,1,121041414,Crows Nest - Waverton,Sydney - North Sydney and Hornsby,POINT (151.19182169139353 -33.83199287191907)
2065162,"Wollstonecraft Station, Platform 2",-33.8320268503259,151.191720128252,1,121041414,Crows Nest - Waverton,Sydney - North Sydney and Hornsby,POINT (151.1917255655034 -33.83201416528626)
206520,St Leonards Station,-33.8222319028877,151.19413439444,1,121011401,St Leonards - Naremburn,Sydney - North Sydney and Hornsby,POINT (151.19413983265906 -33.82221921800462)
206710,Chatswood Station,-33.7970938529267,151.180894309455,1,121011684,Chatswood - East,Sydney - North Sydney and Hornsby,POINT (151.1808997529293 -33.79708116663175)
2067141,"Chatswood Station, Platform 1",-33.7974762545413,151.181042438872,1,121011684,Chatswood - East,Sydney - North Sydney and Hornsby,POINT (151.181047882274 -33.797463568262856)
2067144,"Chatswood Station, Platform 4",-33.7974839358232,151.180816180391,1,121011684,Chatswood - East,Sydney - North Sydney and Hornsby,POINT (151.18082162382422 -33.79747124952371)
206910,Roseville Station,-33.7844361686666,151.177666734666,1,121031408,Lindfield - Roseville,Sydney - North Sydney and Hornsby,POINT (151.177672180294 -33.784423481981705)
2069131,"Roseville Station, Platform 1",-33.784305259701,151.177541672553,1,121031408,Lindfield - Roseville,Sydney - North Sydney and Hornsby,POINT (151.17754711821635 -33.78429257300351)
2069132,"Roseville Station, Platform 2",-33.7843700528416,151.177490872298,1,121031408,Lindfield - Roseville,Sydney - North Sydney and Hornsby,POINT (151.17749631795994 -33.78435736613983)
207010,Lindfield Station,-33.7755213580091,151.169270678738,1,121031408,Lindfield - Roseville,Sydney - North Sydney and Hornsby,POINT (151.16927612675494 -33.77550867047866)
2070141,"Lindfield Station, Platform 1",-33.7753508117713,151.169251612951,1,121031408,Lindfield - Roseville,Sydney - North Sydney and Hornsby,POINT (151.16925706099346 -33.77533812423789)
2070142,"Lindfield Station, Platform 2",-33.7753810785676,151.169155978085,1,121031408,Lindfield - Roseville,Sydney - North Sydney and Hornsby,POINT (151.169161426137 -33.77536839102548)
2070143,"Lindfield Station, Platform 3",-33.7754106162322,151.169081886372,1,121031408,Lindfield - Roseville,Sydney - North Sydney and Hornsby,POINT (151.16908733443066 -33.775397928683375)
207110,Killara Station,-33.7656990836047,151.161846590484,0,121031407,Gordon - Killara,Sydney - North Sydney and Hornsby,POINT (151.1618520408716 -33.765686395313196)
207191,"Killara Station, Platform 1",-33.7655656077672,151.161796974576,2,121031407,Gordon - Killara,Sydney - North Sydney and Hornsby,POINT (151.16180242498845 -33.76555291947013)
207192,"Killara Station, Platform 2",-33.765612767596,151.161734529621,2,121031407,Gordon - Killara,Sydney - North Sydney and Hornsby,POINT (151.16173998003603 -33.76560007929345)
207210,Gordon Station,-33.7559114770957,151.154447552941,1,121031407,Gordon - Killara,Sydney - North Sydney and Hornsby,POINT (151.15445300568996 -33.755898788045926)
207261,"Gordon Station, Platform 1",-33.7556632336411,151.154327688904,1,121031407,Gordon - Killara,Sydney - North Sydney and Hornsby,POINT (151.15433314170318 -33.75565054457841)
207262,"Gordon Station, Platform 2",-33.7556841290875,151.154242403422,1,121031407,Gordon - Killara,Sydney - North Sydney and Hornsby,POINT (151.15424785623048 -33.75567144001701)
207263,"Gordon Station, Platform 3",-33.7557230154905,151.154157987159,1,121031407,Gordon - Killara,Sydney - North Sydney and Hornsby,POINT (151.15416343997438 -33.75571032641242)
207310,Pymble Station,-33.7447796245226,151.142261413778,0,121031409,Pymble,Sydney - North Sydney and Hornsby,POINT (151.14226686974823 -33.74476693425947)
2073161,"Pymble Station, Platform 1",-33.7446947344769,151.142106327712,2,121031409,Pymble,Sydney - North Sydney and Hornsby,POINT (151.14211178371562 -33.74468204419875)
2073162,"Pymble Station, Platform 2",-33.7447677854221,151.142077488824,2,121031409,Pymble,Sydney - North Sydney and Hornsby,POINT (151.14208294482196 -33.74475509514175)
207410,Turramurra Station,-33.7325863525625,151.128636438183,1,121031411,Turramurra,Sydney - North Sydney and Hornsby,POINT (151.12864189771904 -33.732573660945214)
2074181,"Turramurra Station, Platform 1",-33.7324535786708,151.128565363567,1,121031411,Turramurra,Sydney - North Sydney and Hornsby,POINT (151.12857082313084 -33.732440887045975)
2074182,"Turramurra Station, Platform 2",-33.7324920861322,151.128491722285,1,121031411,Turramurra,Sydney - North Sydney and Hornsby,POINT (151.12849718185416 -33.73247939450078)
2074191,"Warrawee Station, Platform 1",-33.724264343699,151.121799756976,1,121031412,Wahroonga (East) - Warrawee,Sydney - North Sydney and Hornsby,POINT (151.12180521859412 -33.724251651387014)
2074192,"Warrawee Station, Platform 2",-33.7243035666897,151.12170458711,1,121031412,Wahroonga (East) - Warrawee,Sydney - North Sydney and Hornsby,POINT (151.12171004873642 -33.724290874369146)
207420,Warrawee Station,-33.7243985626506,151.121827749895,1,121031412,Wahroonga (East) - Warrawee,Sydney - North Sydney and Hornsby,POINT (151.12183321149124 -33.72438587034217)
207610,Wahroonga Station,-33.7180452177365,151.117544904553,1,121031412,Wahroonga (East) - Warrawee,Sydney - North Sydney and Hornsby,POINT (151.11755036760502 -33.71803252498494)
2076231,"Normanhurst Station, Platform 1",-33.7208046995463,151.097189671768,2,121021406,Normanhurst - Thornleigh - Westleigh,Sydney - North Sydney and Hornsby,POINT (151.09719513734854 -33.72079200492143)
2076232,"Normanhurst Station, Platform 2",-33.7207255224349,151.09713198992,2,121021406,Normanhurst - Thornleigh - Westleigh,Sydney - North Sydney and Hornsby,POINT (151.09713745551926 -33.720712827804114)
2076241,"Wahroonga Station, Platform 1",-33.7178257105921,151.117372672873,1,121031412,Wahroonga (East) - Warrawee,Sydney - North Sydney and Hornsby,POINT (151.11737813597875 -33.71781301782298)
2076242,"Wahroonga Station, Platform 2",-33.7178732068403,151.117299467858,1,121031412,Wahroonga (East) - Warrawee,Sydney - North Sydney and Hornsby,POINT (151.11730493096786 -33.71786051406469)
207710,Waitara Station,-33.7103651300041,151.104940809242,0,121021579,Wahroonga (West) - Waitara,Sydney - North Sydney and Hornsby,POINT (151.1049462751095 -33.71035243602635)
2077291,"Asquith Station, Platform 1",-33.688613438102,151.108205374966,2,121021403,Asquith - Mount Colah,Sydney - North Sydney and Hornsby,POINT (151.10821084326432 -33.688600744274744)
2077292,"Asquith Station, Platform 2",-33.6885536908523,151.108105519384,2,121021403,Asquith - Mount Colah,Sydney - North Sydney and Hornsby,POINT (151.10811098770446 -33.68854099701534)
207730,Asquith Station,-33.6885234768332,151.10820108751,0,121021403,Asquith - Mount Colah,Sydney - North Sydney and Hornsby,POINT (151.1082065558209 -33.68851078300491)
2077301,"Hornsby Station, Platform 1",-33.7032333803697,151.098574636433,1,121021577,Hornsby - East,Sydney - North Sydney and Hornsby,POINT (151.09858010415493 -33.703220685749976)
2077302,"Hornsby Station, Platform 2",-33.7032096110442,151.098476480518,1,121021577,Hornsby - East,Sydney - North Sydney and Hornsby,POINT (151.09848194825702 -33.70319691641518)
2077303,"Hornsby Station, Platform 3",-33.7032031186892,151.098400707675,1,121021577,Hornsby - East,Sydney - North Sydney and Hornsby,POINT (151.09840617542568 -33.70319042405308)
2077304,"Hornsby Station, Platform 4",-33.7031789915359,151.09831331538,1,121021578,Hornsby - West,Sydney - North Sydney and Hornsby,POINT (151.09831878314634 -33.70316629689151)
2077305,"Hornsby Station, Platform 5",-33.7031642182103,151.098215587519,1,121021578,Hornsby - West,Sydney - North Sydney and Hornsby,POINT (151.0982210553012 -33.703151523556706)
2077311,"Waitara Station, Platform 1",-33.710244200625,151.104784105814,2,121021579,Wahroonga (West) - Waitara,Sydney - North Sydney and Hornsby,POINT (151.10478957171986 -33.71023150663183)
2077312,"Waitara Station, Platform 2",-33.7102996106755,151.104743620845,2,121021579,Wahroonga (West) - Waitara,Sydney - North Sydney and Hornsby,POINT (151.10474908674925 -33.71028691667895)
207910,Mount Colah Station,-33.6713371145702,151.115065997277,0,121021403,Asquith - Mount Colah,Sydney - North Sydney and Hornsby,POINT (151.1150714668995 -33.671324421259385)
2079101,"Mount Colah Station, Platform 1",-33.6714472205242,151.115006591237,2,121021403,Asquith - Mount Colah,Sydney - North Sydney and Hornsby,POINT (151.11501206085333 -33.67143452720862)
2079102,"Mount Colah Station, Platform 2",-33.6714043931775,151.114939889154,2,121021403,Asquith - Mount Colah,Sydney - North Sydney and Hornsby,POINT (151.1149453587855 -33.67139169985541)
208010,Mount Kuring-gai Station,-33.653589069105,151.13682391124,0,121021403,Asquith - Mount Colah,Sydney - North Sydney and Hornsby,POINT (151.13682938013642 -33.6535763776939)
208041,"Mount Kuring-gai Station, Platform 1",-33.6534789554251,151.136883278398,2,121021403,Asquith - Mount Colah,Sydney - North Sydney and Hornsby,POINT (151.13688874730067 -33.653466264018746)
208042,"Mount Kuring-gai Station, Platform 2",-33.6534732047264,151.136786035695,2,121021403,Asquith - Mount Colah,Sydney - North Sydney and Hornsby,POINT (151.13679150461226 -33.65346051331097)
208110,Berowra Station,-33.6233851756329,151.153234536554,1,121021404,Berowra - Brooklyn - Cowan,Sydney - North Sydney and Hornsby,POINT (151.1532400071445 -33.623372485537324)
208120,Cowan Station,-33.5935671349035,151.171774236126,0,121021404,Berowra - Brooklyn - Cowan,Sydney - North Sydney and Hornsby,POINT (151.17177970806097 -33.59355444632557)
208171,"Berowra Station, Platform 1",-33.6235758941062,151.153189851899,1,121021404,Berowra - Brooklyn - Cowan,Sydney - North Sydney and Hornsby,POINT (151.1531953224704 -33.623563204007816)
208172,"Berowra Station, Platform 2",-33.6235237284014,151.153133493226,1,121021404,Berowra - Brooklyn - Cowan,Sydney - North Sydney and Hornsby,POINT (151.15313896381238 -33.62351103829739)
208173,"Berowra Station, Platform 3",-33.6234535712431,151.153076269909,1,121021404,Berowra - Brooklyn - Cowan,Sydney - North Sydney and Hornsby,POINT (151.15308174051282 -33.623440881133256)
208181,"Cowan Station, Platform 1",-33.5934757273183,151.17181289368,2,121021404,Berowra - Brooklyn - Cowan,Sydney - North Sydney and Hornsby,POINT (151.17181836562162 -33.59346303874334)
208182,"Cowan Station, Platform 2",-33.5934696361276,151.171726468618,2,121021404,Berowra - Brooklyn - Cowan,Sydney - North Sydney and Hornsby,POINT (151.1717319405727 -33.59345694754454)
208310,Hawkesbury River Station,-33.5468434435127,151.226575476183,1,121021404,Berowra - Brooklyn - Cowan,Sydney - North Sydney and Hornsby,POINT (151.22658094659707 -33.546830759720365)
208341,"Hawkesbury River Station, Platform 1",-33.5469813069631,151.226496117895,1,121021404,Berowra - Brooklyn - Cowan,Sydney - North Sydney and Hornsby,POINT (151.2265015883019 -33.54696862316432)
208342,"Hawkesbury River Station, Platform 2",-33.5469115512462,151.226428153886,1,121021404,Berowra - Brooklyn - Cowan,Sydney - North Sydney and Hornsby,POINT (151.2264336243118 -33.54689886744059)
2120211,"Thornleigh Station, Platform 1",-33.7319355238275,151.07835102385,2,121021406,Normanhurst - Thornleigh - Westleigh,Sydney - North Sydney and Hornsby,POINT (151.0783564906307 -33.73192282753068)
2120212,"Thornleigh Station, Platform 2",-33.731875398669,151.078261900297,2,121021406,Normanhurst - Thornleigh - Westleigh,Sydney - North Sydney and Hornsby,POINT (151.07826736709842 -33.73186270236347)
2120213,"Thornleigh Station, Platform 3",-33.7318246260318,151.07816243578,2,121021406,Normanhurst - Thornleigh - Westleigh,Sydney - North Sydney and Hornsby,POINT (151.07816790260233 -33.73181192971668)
213010,Summer Hill Station,-33.8904406498063,151.138702797748,1,120031395,Haberfield - Summer Hill,Sydney - Inner West,POINT (151.13870823475767 -33.890427960234284)
213052,"Summer Hill Station, Platform 2",-33.890368970131,151.138958626169,1,120031395,Haberfield - Summer Hill,Sydney - Inner West,POINT (151.13896406315163 -33.890356280582296)
213053,"Summer Hill Station, Platform 3",-33.8904333904352,151.138918527064,1,120031395,Haberfield - Summer Hill,Sydney - Inner West,POINT (151.13892396404373 -33.89042070088321)
213110,Ashfield Station,-33.887637768522,151.125851234765,1,120031677,Ashfield - South,Sydney - Inner West,POINT (151.12585667399023 -33.88762507773402)
2131121,"Ashfield Station, Platform 1",-33.8874381047839,151.125625531433,1,120031677,Ashfield - South,Sydney - Inner West,POINT (151.12563097071725 -33.8874254139735)
2131122,"Ashfield Station, Platform 2",-33.8875115170414,151.125585856741,1,120031677,Ashfield - South,Sydney - Inner West,POINT (151.1255912960211 -33.88749882622785)
2131123,"Ashfield Station, Platform 3",-33.8875755718692,151.125556534478,1,120031677,Ashfield - South,Sydney - Inner West,POINT (151.12556197375375 -33.88756288105335)
2131124,"Ashfield Station, Platform 4",-33.8876396266928,151.125527212175,1,120031677,Ashfield - South,Sydney - Inner West,POINT (151.12553265144638 -33.887626935874685)
2131125,"Ashfield Station, Platform 5",-33.8877126771529,151.125498323625,1,120031677,Ashfield - South,Sydney - Inner West,POINT (151.12550376289076 -33.887699986332606)
213210,Croydon Station,-33.8830747904083,151.115206126788,1,120031679,Croydon,Sydney - Inner West,POINT (151.11521156814794 -33.88306209859791)
213284,"Croydon Station, Platform 4",-33.8832313015215,151.115375702477,1,120031679,Croydon,Sydney - Inner West,POINT (151.11538114379172 -33.88321860972799)
213285,"Croydon Station, Platform 5",-33.8832960760964,151.115324801649,1,120031679,Croydon,Sydney - Inner West,POINT (151.11533024296236 -33.88328338429861)
213410,Burwood Station,-33.8771016845813,151.103857156342,1,120031678,Burwood (NSW),Sydney - Inner West,POINT (151.1038626001254 -33.877088991673624)
213491,"Burwood Station, Platform 1",-33.8769444375604,151.104249308733,1,120031678,Burwood (NSW),Sydney - Inner West,POINT (151.10425475248124 -33.87693174468808)
213492,"Burwood Station, Platform 2",-33.8770347563491,151.104242837366,1,120031678,Burwood (NSW),Sydney - Inner West,POINT (151.1042482811031 -33.8770220634768)
213493,"Burwood Station, Platform 3",-33.8771254349548,151.104225580733,1,120031678,Burwood (NSW),Sydney - Inner West,POINT (151.10423102446046 -33.87711274208154)
213494,"Burwood Station, Platform 4",-33.8771977619489,151.104218246571,1,120031678,Burwood (NSW),Sydney - Inner West,POINT (151.10422369028984 -33.87718506907546)
213495,"Burwood Station, Platform 5",-33.8772704487594,151.104200127123,1,120031678,Burwood (NSW),Sydney - Inner West,POINT (151.10420557083472 -33.87725775588479)
213496,"Burwood Station, Platform 6",-33.8773517716504,151.104193224327,1,120031678,Burwood (NSW),Sydney - Inner West,POINT (151.10419866802886 -33.87733907877572)
2135231,"Strathfield Station, Platform 1",-33.8712614270976,151.094168792398,1,120031680,Strathfield - East,Sydney - Inner West,POINT (151.09417423834864 -33.8712487332484)
2135232,"Strathfield Station, Platform 2",-33.8713078427178,151.094127804924,1,120031680,Strathfield - East,Sydney - Inner West,POINT (151.0941332508743 -33.87129514886512)
2135233,"Strathfield Station, Platform 3",-33.8713819641384,151.094066538747,1,120031680,Strathfield - East,Sydney - Inner West,POINT (151.09407198469617 -33.871369270280546)
2135234,"Strathfield Station, Platform 4",-33.8714470895148,151.094004842243,1,120031680,Strathfield - East,Sydney - Inner West,POINT (151.09401028819232 -33.87143439565167)
2135235,"Strathfield Station, Platform 5",-33.8715032188452,151.09394271543,1,120031680,Strathfield - East,Sydney - Inner West,POINT (151.0939481613807 -33.871490524976686)
2135236,"Strathfield Station, Platform 6",-33.8715499932675,151.093890943023,1,120031680,Strathfield - East,Sydney - Inner West,POINT (151.09389638897488 -33.871537299394504)
2135237,"Strathfield Station, Platform 7",-33.8716158362831,151.093807676851,1,120031680,Strathfield - East,Sydney - Inner West,POINT (151.09381312280598 -33.87160314240283)
2135238,"Strathfield Station, Platform 8",-33.8716626106583,151.093755904303,1,120031680,Strathfield - East,Sydney - Inner West,POINT (151.09376135025917 -33.87164991677354)
213710,North Strathfield Station,-33.8591884317189,151.088180615392,1,120011672,Concord West - North Strathfield,Sydney - Inner West,POINT (151.08818606381172 -33.85917573722862)
2137171,"North Strathfield Station, Platform 1",-33.8590797619738,151.088197028857,1,120011672,Concord West - North Strathfield,Sydney - Inner West,POINT (151.0882024772889 -33.85906706748429)
2137172,"North Strathfield Station, Platform 2",-33.8591013366074,151.088090055564,1,120011672,Concord West - North Strathfield,Sydney - Inner West,POINT (151.08809550400835 -33.8590886421081)
2137173,"North Strathfield Station, Platform 3",-33.8591135568162,151.087993436032,1,120011672,Concord West - North Strathfield,Sydney - Inner West,POINT (151.08799888448854 -33.85910086230799)
213810,Concord West Station,-33.8486050543235,151.085623760119,1,120011672,Concord West - North Strathfield,Sydney - Inner West,POINT (151.08562921031708 -33.848592359521454)
213881,"Concord West Station, Platform 2",-33.8487292107563,151.085683675496,1,120011672,Concord West - North Strathfield,Sydney - Inner West,POINT (151.08568912566892 -33.84871651596068)
213882,"Concord West Station, Platform 3",-33.8487324320999,151.08558663801,1,120011672,Concord West - North Strathfield,Sydney - Inner West,POINT (151.0855920881964 -33.8487197372953)
213883,"Concord West Station, Platform 4",-33.8487360112813,151.085478818562,1,120011672,Concord West - North Strathfield,Sydney - Inner West,POINT (151.08548426876334 -33.848723316466696)
213891,"Rhodes Station, Platform 1",-33.8307876901942,151.087095825474,1,120011673,Rhodes,Sydney - Inner West,POINT (151.08710127783877 -33.830774995403935)
213892,"Rhodes Station, Platform 2",-33.8307549265178,151.086997093114,1,120011673,Rhodes,Sydney - Inner West,POINT (151.08700254549728 -33.83074223171812)
213893,"Rhodes Station, Platform 3",-33.830749151237,151.08689964728,1,120011673,Rhodes,Sydney - Inner West,POINT (151.08690509967798 -33.83073645642823)
214010,Homebush Station,-33.8666879506665,151.086194781455,0,120031396,Homebush,Sydney - Inner West,POINT (151.08620022915775 -33.866675256044296)
214020,Flemington Station,-33.8649121358055,151.070178414264,1,120031396,Homebush,Sydney - Inner West,POINT (151.07018386449624 -33.864899439683384)
214061,"Flemington Station, Platform 1",-33.8647414842926,151.069889473654,1,120031396,Homebush,Sydney - Inner West,POINT (151.06989492395041 -33.86472878814245)
214062,"Flemington Station, Platform 2",-33.8648141681006,151.06987132599,1,120031396,Homebush,Sydney - Inner West,POINT (151.06987677627927 -33.864801471949285)
214063,"Flemington Station, Platform 3",-33.8648958482094,151.069853605885,1,120031396,Homebush,Sydney - Inner West,POINT (151.0698590561659 -33.86488315205702)
214064,"Flemington Station, Platform 4",-33.8649771716218,151.069846669951,1,120031396,Homebush,Sydney - Inner West,POINT (151.0698521202221 -33.864964475469336)
214072,"Homebush Station, Platform 2",-33.8666458776579,151.086376395315,2,120031396,Homebush,Sydney - Inner West,POINT (151.08638184299738 -33.866633183052286)
214073,"Homebush Station, Platform 3",-33.8667279171531,151.086347906845,2,120031396,Homebush,Sydney - Inner West,POINT (151.0863533545205 -33.86671522254542)
214074,"Homebush Station, Platform 4",-33.8667923225701,151.086307775441,2,120031396,Homebush,Sydney - Inner West,POINT (151.08631322311365 -33.86677962795914)
214076,"Homebush Station, Platform 6",-33.8669211333766,151.086227512462,1,120031396,Homebush,Sydney - Inner West,POINT (151.08623296012894 -33.86690843875908)
214077,"Homebush Station, Platform 7",-33.8670614896757,151.086342224215,1,120031396,Homebush,Sydney - Inner West,POINT (151.0863476718468 -33.86704879506982)
2193111,"Canterbury Station, Platform 1",-33.9119738534546,151.118607054655,2,120031392,Canterbury (North) - Ashbury,Sydney - Inner West,POINT (151.11861249166162 -33.91196116216308)
2193112,"Canterbury Station, Platform 2",-33.9119033724915,151.118290259531,2,120031392,Canterbury (North) - Ashbury,Sydney - Inner West,POINT (151.11829569659244 -33.91189068117003)
2193121,"Hurlstone Park Station, Platform 1",-33.9103004438958,151.132229218214,2,120031392,Canterbury (North) - Ashbury,Sydney - Inner West,POINT (151.13223465349205 -33.910287753860246)
2193122,"Hurlstone Park Station, Platform 2",-33.9103792281829,151.132297866443,2,120031392,Canterbury (North) - Ashbury,Sydney - Inner West,POINT (151.13230330170066 -33.910366538154285)
220361,"Dulwich Hill Station, Platform 1",-33.9109790432652,151.140982989829,2,120031394,Dulwich Hill - Lewisham,Sydney - Inner West,POINT (151.14098842376154 -33.91096635404941)
220362,"Dulwich Hill Station, Platform 2",-33.911052096761,151.140954109135,2,120031394,Dulwich Hill - Lewisham,Sydney - Inner West,POINT (151.14095954306185 -33.91103940754304)
2204121,"Marrickville Station, Platform 1",-33.913872654242,151.153497157036,1,117021637,Marrickville - South,Sydney - City and Inner South,POINT (151.15350258878723 -33.91385996621214)
2204122,"Marrickville Station, Platform 2",-33.9139550696868,151.153457934595,1,117021637,Marrickville - South,Sydney - City and Inner South,POINT (151.1534633663408 -33.91394238165387)
2000132,"Central Station, Forecourt, Coach Bay 8",-33.8822661487583,151.205446889696,0,117031645,Sydney (South) - Haymarket,Sydney - City and Inner South,POINT (151.20545231824735 -33.882253465352456)
2000202,Paddy's Markets Light Rail,-33.8792817221267,151.202610449492,0,117031645,Sydney (South) - Haymarket,Sydney - City and Inner South,POINT (151.20261587884977 -33.879269038435105)
2000204,Convention Light Rail,-33.8726792272122,151.198073677434,0,117031645,Sydney (South) - Haymarket,Sydney - City and Inner South,POINT (151.19807910832674 -33.87266654305076)
200088,Darling Dr Opp Convention Centre,-33.8725031735336,151.198216262919,0,117031645,Sydney (South) - Haymarket,Sydney - City and Inner South,POINT (151.198221693815 -33.87249048938424)
200091,"Paddy's Market Light Rail, Darling Dr",-33.8792460810229,151.201280018981,0,117031645,Sydney (South) - Haymarket,Sydney - City and Inner South,POINT (151.20128544853392 -33.87923339720683)
200092,"Paddy's Market Light Rail, Darling Dr",-33.8792549206941,151.201021198187,0,117031645,Sydney (South) - Haymarket,Sydney - City and Inner South,POINT (151.20102662777578 -33.87924223685393)
200812,Railway Square,-33.8836558382517,151.20353827896,0,117031639,Chippendale,Sydney - City and Inner South,POINT (151.20354370759793 -33.8836431546774)
200819,"Central Station, Railway Square, Stand N",-33.8840583905823,151.203622874032,0,117031645,Sydney (South) - Haymarket,Sydney - City and Inner South,POINT (151.2036283026038 -33.88404570701872)
200914,"Convention Centre, Darling Dr",-33.8729132555779,151.1983443915,0,117031645,Sydney (South) - Haymarket,Sydney - City and Inner South,POINT (151.1983498223226 -33.87290057144339)
200919,"The Star, Pirrama Rd",-33.8670038165592,151.195408394051,0,117031641,Pyrmont,Sydney - City and Inner South,POINT (151.19541382608628 -33.866991132109185)
200931,Pirrama Rd Opp The Star,-33.867729429644,151.196059601178,0,117031641,Pyrmont,Sydney - City and Inner South,POINT (151.19606503302282 -33.867716745259855)
200947,The Star Light Rail,-33.8675167216443,151.195163508311,0,117031641,Pyrmont,Sydney - City and Inner South,POINT (151.19516894031247 -33.86750403717503)
2000136,"QVB, York St, Stand E",-33.8701191919245,151.206286589015,0,117031644,Sydney (North) - Millers Point,Sydney - City and Inner South,POINT (151.20629201907659 -33.870106508511896)
2000142,"Wynyard Station, Clarence St, Stand R",-33.8654933044574,151.204817251106,0,117031644,Sydney (North) - Millers Point,Sydney - City and Inner South,POINT (151.20482268199842 -33.86548062087516)
200017,"Central Station, Railway Square, Stand J",-33.8831596526229,151.203557112477,0,117031645,Sydney (South) - Haymarket,Sydney - City and Inner South,POINT (151.20356254117885 -33.883146969046884)
2000171,QVB,-33.8716923104495,151.206655526208,0,117031644,Sydney (North) - Millers Point,Sydney - City and Inner South,POINT (151.2066609560057 -33.87167962708238)
2000221,"Wynyard Station, Clarence St, Stand Q",-33.8646226548073,151.204720490866,0,117031644,Sydney (North) - Millers Point,Sydney - City and Inner South,POINT (151.20472592188912 -33.8646099712099)
2000249,"Town Hall Station, Park St, Stand H",-33.8730582401476,151.207813604716,0,117031644,Sydney (North) - Millers Point,Sydney - City and Inner South,POINT (151.20781903416474 -33.8730455568982)
2000252,"Town Hall Station, Park St, Stand K",-33.8732538253722,151.208417301554,0,117031644,Sydney (North) - Millers Point,Sydney - City and Inner South,POINT (151.20842273089013 -33.87324114218055)
200031,"Wynyard Station, York St, Stand J",-33.8664405626668,151.2058358308,0,117031644,Sydney (North) - Millers Point,Sydney - City and Inner South,POINT (151.20584126141966 -33.866427879186304)
200033,"Wynyard Station, York St, Stand K",-33.8661894468627,151.205801893499,0,117031644,Sydney (North) - Millers Point,Sydney - City and Inner South,POINT (151.2058073241572 -33.86617676337727)
2000419,"Wynyard Station, Kent St, Stand V",-33.8655435030049,151.204139283365,0,117031644,Sydney (North) - Millers Point,Sydney - City and Inner South,POINT (151.20414471434765 -33.8655308193597)
2000420,Kent St After Market St,-33.8703622679514,151.204710766974,0,117031644,Sydney (North) - Millers Point,Sydney - City and Inner South,POINT (151.20471619722835 -33.87034958439335)
2000422,Kent St After Druitt St,-33.8720844695469,151.204935781938,0,117031644,Sydney (North) - Millers Point,Sydney - City and Inner South,POINT (151.20494121192905 -33.87207178602193)
2000427,Clarence St At King St,-33.8689575418175,151.205214220527,0,117031644,Sydney (North) - Millers Point,Sydney - City and Inner South,POINT (151.20521965089782 -33.8689448582966)
200043,"QVB, York St, Stand C",-33.8719687894743,151.206474689885,0,117031644,Sydney (North) - Millers Point,Sydney - City and Inner South,POINT (151.20648011967143 -33.87195610609223)
200064,"Central Station, Railway Square, Stand M",-33.8836703614572,151.203376950025,0,117031639,Chippendale,Sydney - City and Inner South,POINT (151.20338237868407 -33.883657677867944)
200721,"Broadway Shopping Centre, Broadway",-33.884263670066,151.196027700301,0,117031646,Ultimo,Sydney - City and Inner South,POINT (151.19603312993212 -33.88425098579483)
200815,Broadway At Buckland St,-33.884497410031,151.197627200538,0,117031639,Chippendale,Sydney - City and Inner South,POINT (151.1976326299089 -33.88448472591077)
204079,Parramatta Rd Before Catherine St,-33.8877256177205,151.160956560767,0,120021675,Leichhardt,Sydney - Inner West,POINT (151.16096199495388 -33.88771293020253)
204518,Parramatta Rd At Haberfield Rd,-33.8866798982437,151.14068156967,0,120031395,Haberfield - Summer Hill,Sydney - Inner West,POINT (151.14068700689984 -33.88666720882957)
204670,Parramatta Rd Before Arlington St,-33.8726570249651,151.125755539879,0,120011386,Five Dock - Abbotsford,Sydney - Inner West,POINT (151.12576098112194 -33.872644334063196)
204811,"Stanmore Station, Douglas St",-33.8941571171629,151.163668000945,0,117021327,Petersham - Stanmore,Sydney - City and Inner South,POINT (151.1636734338817 -33.89414442994271)
204816,Percival Rd Opp Stanmore Station,-33.8936545776129,151.164140534621,0,117021327,Petersham - Stanmore,Sydney - City and Inner South,POINT (151.16414596755746 -33.89364189043325)
204911,"Petersham Station, Trafalgar St",-33.8939212994156,151.156255533985,0,117021327,Petersham - Stanmore,Sydney - City and Inner South,POINT (151.1562609680148 -33.89390861150296)
204912,Trafalgar St Opp Petersham Station,-33.8940512431226,151.156143000226,0,117021327,Petersham - Stanmore,Sydney - City and Inner South,POINT (151.15614843425453 -33.894038555200375)
204918,"Lewisham Station, Railway Tce",-33.8936830499405,151.148367570713,0,120031394,Dulwich Hill - Lewisham,Sydney - Inner West,POINT (151.14837300590438 -33.89367036129129)
204924,Parramatta Rd Before Phillip St,-33.8882222683795,151.162255545515,0,117021327,Petersham - Stanmore,Sydney - City and Inner South,POINT (151.16226097944937 -33.888209580986064)
204927,Railway Tce Opp Lewisham Station,-33.8939168286922,151.148649019941,0,120031394,Dulwich Hill - Lewisham,Sydney - Inner West,POINT (151.14865445506075 -33.893904140070845)
205016,Parramatta Rd Before Lyons Rd,-33.8862347052321,151.178623120819,0,117031331,Glebe - Forest Lodge,Sydney - City and Inner South,POINT (151.1786285526767 -33.886222019350804)
205023,Parramatta Rd At Missenden Rd,-33.8861521829653,151.179991105851,0,117031638,Camperdown - Darlington,Sydney - City and Inner South,POINT (151.17999653752398 -33.886139497211026)
206012,"North Sydney Station, Blue St, Stand B",-33.840941392294,151.206926999193,0,121041417,North Sydney - Lavender Bay,Sydney - North Sydney and Hornsby,POINT (151.20693243307736 -33.84092870873648)
206013,"Victoria Cross, Miller St",-33.8394455280049,151.206670016177,0,121041417,North Sydney - Lavender Bay,Sydney - North Sydney and Hornsby,POINT (151.20667545029866 -33.839432844412904)
206024,Miller St Before Blue St,-33.8401381259967,151.206704012983,0,121041417,North Sydney - Lavender Bay,Sydney - North Sydney and Hornsby,POINT (151.20670944700697 -33.840125442412734)
206027,"Greenwood Plaza, Pacific Hwy",-33.839853478253,151.207650996236,0,121041417,North Sydney - Lavender Bay,Sydney - North Sydney and Hornsby,POINT (151.20765643016284 -33.83984079475546)
206052,"Victoria Cross, Miller St",-33.8384859704114,151.207065597716,0,121041417,North Sydney - Lavender Bay,Sydney - North Sydney and Hornsby,POINT (151.20707103190986 -33.8384732868496)
206058,Lavender St Opp Cliff St,-33.8435374895675,151.210315361262,0,121041417,North Sydney - Lavender Bay,Sydney - North Sydney and Hornsby,POINT (151.21032079431413 -33.84352480634465)
206067,Pacific Hwy At Walker St,-33.8401832671413,151.208282633726,0,121041417,North Sydney - Lavender Bay,Sydney - North Sydney and Hornsby,POINT (151.20828806751837 -33.84017058370506)
206121,Alfred St Sth Opp Milsons Point Station,-33.8461996183762,151.211245229434,0,121041417,North Sydney - Lavender Bay,Sydney - North Sydney and Hornsby,POINT (151.2112506619962 -33.84618693525887)
206123,"Milsons Point Station, Alfred St Sth",-33.8462555723401,151.211453142461,0,121041417,North Sydney - Lavender Bay,Sydney - North Sydney and Hornsby,POINT (151.21145857498595 -33.846242889242575)
206426,Pacific Hwy Opp Cobden Av,-33.8156918818356,151.178465095514,0,121011401,St Leonards - Naremburn,Sydney - North Sydney and Hornsby,POINT (151.17847053684565 -33.81567919544467)
206429,"Gore Hill Technology Park, Pacific Hwy",-33.819743584978,151.184383744059,0,121011401,St Leonards - Naremburn,Sydney - North Sydney and Hornsby,POINT (151.18438918400332 -33.81973089916762)
206430,"TAFE St Leonards, Pacific Hwy",-33.8214959024619,151.186110086019,0,121011401,St Leonards - Naremburn,Sydney - North Sydney and Hornsby,POINT (151.1861155254822 -33.821483216824866)
2065135,"St Leonards Station, Pacific Hwy, Stand B",-33.8238166665468,151.193369869698,0,121011685,Greenwich - Riverview,Sydney - North Sydney and Hornsby,POINT (151.19337530781388 -33.82380398160348)
2065136,Pacific Hwy Opp TAFE St Leonards,-33.8213396540119,151.185670658534,0,121011685,Greenwich - Riverview,Sydney - North Sydney and Hornsby,POINT (151.18567609808088 -33.82132696833277)
2065137,Pacific Hwy After Falcon St,-33.8280561550458,151.201155863547,0,121041414,Crows Nest - Waverton,Sydney - North Sydney and Hornsby,POINT (151.20116129998314 -33.828043470859)
2065141,Pacific Hwy Opp Campbell St,-33.8184042793227,151.182699205257,0,121011685,Greenwich - Riverview,Sydney - North Sydney and Hornsby,POINT (151.18270464562113 -33.818391593345766)
206523,"St Leonards Station, Pacific Hwy, Stand A",-33.8231936250534,151.194731985684,0,121011401,St Leonards - Naremburn,Sydney - North Sydney and Hornsby,POINT (151.1947374236889 -33.82318094023284)
206524,Pacific Hwy After Shirley Rd,-33.8271754565351,151.200033142538,0,121041414,Crows Nest - Waverton,Sydney - North Sydney and Hornsby,POINT (151.20003857925246 -33.82716277223731)
206618,Lane Cove Interchange,-33.8123818738151,151.171654804969,0,121011399,Chatswood (West) - Lane Cove North,Sydney - North Sydney and Hornsby,POINT (151.1716602477157 -33.81236918676585)
2066223,Epping Rd After Sam Johnson Way,-33.8060974259679,151.152860488623,0,121011686,Lane Cove,Sydney - North Sydney and Hornsby,POINT (151.1528659348926 -33.806084737122816)
2066226,Pacific Hwy Opp Hotham Pde,-33.8160808672525,151.178419277185,0,121011686,Lane Cove,Sydney - North Sydney and Hornsby,POINT (151.17842471847112 -33.816068180860036)
2066228,"Lane Cove Interchange, Longueville Rd, Stand C",-33.8124591797024,151.171766503709,0,121011686,Lane Cove,Sydney - North Sydney and Hornsby,POINT (151.17177194642943 -33.8124464926641)
2066230,Epping Rd Opp Sam Johnson Way,-33.805945867129,151.153079812303,0,121011399,Chatswood (West) - Lane Cove North,Sydney - North Sydney and Hornsby,POINT (151.15308525856156 -33.80593317830329)
2066251,"Lane Cove Interchange, Longueville Rd, Stand B",-33.8123506392179,151.171512964718,0,121011399,Chatswood (West) - Lane Cove North,Sydney - North Sydney and Hornsby,POINT (151.17151840748917 -33.8123379521552)
207613,Pacific Hwy At Woolcott Av,-33.7162457571647,151.108552812301,0,121021579,Wahroonga (West) - Waitara,Sydney - North Sydney and Hornsby,POINT (151.10855827687183 -33.71623306356417)
2076145,Pacific Hwy Before Ingram Rd,-33.7156790324716,151.108795324702,0,121021579,Wahroonga (West) - Waitara,Sydney - North Sydney and Hornsby,POINT (151.10880078931376 -33.715666338889626)
207615,Pennant Hills Rd After Stuart Av,-33.7246087167525,151.08954204894,0,121021406,Normanhurst - Thornleigh - Westleigh,Sydney - North Sydney and Hornsby,POINT (151.08954751510254 -33.7245960214437)
2076150,"Normanhurst Boys High School, Pennant Hills Rd",-33.7220107956936,151.102918890632,0,121021406,Normanhurst - Thornleigh - Westleigh,Sydney - North Sydney and Hornsby,POINT (151.10292435523675 -33.72199810160978)
2076151,"Abbotsleigh College, Woonona Av",-33.7159410657075,151.113907763674,0,121031412,Wahroonga (East) - Warrawee,Sydney - North Sydney and Hornsby,POINT (151.11391322752368 -33.715928372602825)
207616,Pennant Hills Rd At Russell Av,-33.7193279775406,151.106909982181,0,121021579,Wahroonga (West) - Waitara,Sydney - North Sydney and Hornsby,POINT (151.10691544657513 -33.71931528380898)
207618,Pennant Hills Rd After Kenley Rd,-33.7235750475924,151.093267053887,0,121021406,Normanhurst - Thornleigh - Westleigh,Sydney - North Sydney and Hornsby,POINT (151.09327251965698 -33.723562352622466)
207619,"Normanhurst Public School, Pennant Hills Rd",-33.7244032308346,151.097630518021,0,121021406,Normanhurst - Thornleigh - Westleigh,Sydney - North Sydney and Hornsby,POINT (151.09763598305977 -33.72439053627601)
207621,"Abbotsleigh College, Pacific Hwy",-33.7194024357482,151.115216091979,0,121031412,Wahroonga (East) - Warrawee,Sydney - North Sydney and Hornsby,POINT (151.1152215551815 -33.71938974278955)
207622,Pacific Hwy Before Lucinda Av,-33.7188969983555,151.111730762298,0,121031412,Wahroonga (East) - Warrawee,Sydney - North Sydney and Hornsby,POINT (151.11173622606367 -33.718884305069125)
2076229,"Loreto College South, Osborn Rd",-33.7260137540555,151.096887640743,0,121021406,Normanhurst - Thornleigh - Westleigh,Sydney - North Sydney and Hornsby,POINT (151.09689310567313 -33.7260010594392)
207623,Pacific Hwy Before Woonona Av,-33.7187300839457,151.112412868363,0,121031412,Wahroonga (East) - Warrawee,Sydney - North Sydney and Hornsby,POINT (151.11241833205386 -33.71871739072161)
207661,"Normahurst Boys High School, Denman Pde",-33.7203784367421,151.099983679389,0,121021406,Normanhurst - Thornleigh - Westleigh,Sydney - North Sydney and Hornsby,POINT (151.09998914462872 -33.72036574237394)
207664,Pacific Hwy At Carden Av,-33.7131258478342,151.107810966243,0,121021579,Wahroonga (West) - Waitara,Sydney - North Sydney and Hornsby,POINT (151.10781643133475 -33.71311315414273)
207665,Pennant Hills Rd Opp Russell Av,-33.7193254985064,151.107254905664,0,121021579,Wahroonga (West) - Waitara,Sydney - North Sydney and Hornsby,POINT (151.10726037000936 -33.719312804806826)
207666,Pennant Hills Rd Opp Normanhurst Boys High School,-33.7222594631422,151.103027788149,0,121021406,Normanhurst - Thornleigh - Westleigh,Sydney - North Sydney and Hornsby,POINT (151.10303325270516 -33.72224676907025)
207667,Pennant Hills Rd Opp Normanhurst Public School,-33.7245123588468,151.098142525564,0,121021406,Normanhurst - Thornleigh - Westleigh,Sydney - North Sydney and Hornsby,POINT (151.0981479905154 -33.72449966433656)
207668,Pennant Hills Rd At Campbell Av,-33.723712075042,151.092939290755,0,121021406,Normanhurst - Thornleigh - Westleigh,Sydney - North Sydney and Hornsby,POINT (151.0929447565534 -33.723699380042575)
207712,Pacific Hwy Before Yardley Av,-33.711693441384,151.105909773601,0,121021579,Wahroonga (West) - Waitara,Sydney - North Sydney and Hornsby,POINT (151.10591523915386 -33.711680747505675)
2077157,Pacific Hwy At Edgeworth David Av,-33.7058362520085,151.099151269281,0,121021577,Hornsby - East,Sydney - North Sydney and Hornsby,POINT (151.0991567365746 -33.705823557460675)
2077158,Pacific Hwy At James St,-33.709027237619,151.100467503206,0,121021577,Hornsby - East,Sydney - North Sydney and Hornsby,POINT (151.10047296988776 -33.70901454321597)
2077159,"Waitara Station, Pacific Hwy",-33.7110326353982,151.104918715674,0,121021579,Wahroonga (West) - Waitara,Sydney - North Sydney and Hornsby,POINT (151.10492418145574 -33.71101994142308)
207731,Pacific Hwy Opp Bouvardia St,-33.6896145705936,151.10601109551,0,121021403,Asquith - Mount Colah,Sydney - North Sydney and Hornsby,POINT (151.10601656398694 -33.68960187656936)
207733,Pacific Hwy Opp Asquith Station,-33.6883294678939,151.10780380994,0,121021403,Asquith - Mount Colah,Sydney - North Sydney and Hornsby,POINT (151.10780927833318 -33.6883167740273)
207735,"Barker College, Pacific Hwy",-33.709004088367,151.099808742423,0,121021577,Hornsby - East,Sydney - North Sydney and Hornsby,POINT (151.09981420920153 -33.70899139390258)
207736,Pacific Hwy Opp Leonard St,-33.7077749830343,151.09856431563,0,121021577,Hornsby - East,Sydney - North Sydney and Hornsby,POINT (151.09856978274908 -33.707762288445565)
207737,Pacific Hwy Opp Westfield Hornsby,-33.7051348535738,151.098837592977,0,121021577,Hornsby - East,Sydney - North Sydney and Hornsby,POINT (151.0988430604085 -33.705122158991884)
207745,Pacific Hwy At Mills Av,-33.6831524166616,151.110661197218,0,121021403,Asquith - Mount Colah,Sydney - North Sydney and Hornsby,POINT (151.11066666589406 -33.68313972302428)
207746,Pacific Hwy Opp Rupert St,-33.6806547895906,151.110984007882,0,121021403,Asquith - Mount Colah,Sydney - North Sydney and Hornsby,POINT (151.1109894768445 -33.68064209596571)
207747,Pacific Hwy Opp Mills Av,-33.6830981129489,151.110938835552,0,121021403,Asquith - Mount Colah,Sydney - North Sydney and Hornsby,POINT (151.11094430419584 -33.68308541933701)
207748,"Asquith High School, Peats Ferry Rd",-33.6907088517981,151.103724187961,0,121021403,Asquith - Mount Colah,Sydney - North Sydney and Hornsby,POINT (151.10372965661733 -33.69069615756894)
207749,Pacific Hwy Opp Asquith Bowling And Recreation Club,-33.6911016985045,151.101123588269,0,121021578,Hornsby - West,Sydney - North Sydney and Hornsby,POINT (151.10112905724262 -33.69108900403633)
207750,Pacific Hwy Opp Galston Rd,-33.6917831427084,151.098784605055,0,121021578,Hornsby - West,Sydney - North Sydney and Hornsby,POINT (151.0987900742704 -33.69177044802762)
207751,Peats Ferry Rd Opp Regis Hornsby,-33.6938647918624,151.098506324339,0,121021578,Hornsby - West,Sydney - North Sydney and Hornsby,POINT (151.09851179331704 -33.69385209717041)
207752,"Motor Registry, Pacific Hwy",-33.6965884473076,151.098431043088,0,121021578,Hornsby - West,Sydney - North Sydney and Hornsby,POINT (151.09843651171443 -33.69657575262777)
207753,Pacific Hwy Opp TAFE Northern Sydney,-33.6996757173037,151.097445970226,0,121021578,Hornsby - West,Sydney - North Sydney and Hornsby,POINT (151.09745143858174 -33.699663022554034)
207754,Pacific Hwy Opp Hornsby Park,-33.7018415499733,151.097074631343,0,121021578,Hornsby - West,Sydney - North Sydney and Hornsby,POINT (151.0970800994634 -33.70182885520435)
207756,"Hornsby Station, Stand F",-33.7029047585432,151.098160123236,0,121021578,Hornsby - West,Sydney - North Sydney and Hornsby,POINT (151.0981655910606 -33.702892063882636)
207783,"Asquith Station, Pacific Hwy",-33.6877513148134,151.108660102327,0,121021403,Asquith - Mount Colah,Sydney - North Sydney and Hornsby,POINT (151.10866557067544 -33.687738621022355)
207911,"Mt Colah Station, Pacific Hwy",-33.6713068716727,151.114892130882,0,121021403,Asquith - Mount Colah,Sydney - North Sydney and Hornsby,POINT (151.11489760053325 -33.671294178345484)
207912,Pacific Hwy Opp Mt Colah Station,-33.6708430481361,151.115020874005,0,121021403,Asquith - Mount Colah,Sydney - North Sydney and Hornsby,POINT (151.11502634369972 -33.670830354817596)
207913,Pacific Hwy At Rupert St,-33.6800304404857,151.110792577399,0,121021403,Asquith - Mount Colah,Sydney - North Sydney and Hornsby,POINT (151.11079804647179 -33.68001774683862)
207914,Pacific Hwy Before Yirra Rd,-33.6767682687128,151.112156652638,0,121021403,Asquith - Mount Colah,Sydney - North Sydney and Hornsby,POINT (151.1121621219511 -33.676755575169615)
207915,"Mt Colah Uniting Church, Pacific Hwy",-33.6734707052227,151.11241971947,0,121021403,Asquith - Mount Colah,Sydney - North Sydney and Hornsby,POINT (151.11242518918448 -33.67345801168078)
207916,Pacific Hwy After Playfair Rd,-33.6676167066054,151.119629961121,0,121021403,Asquith - Mount Colah,Sydney - North Sydney and Hornsby,POINT (151.1196354305906 -33.66760401369293)
207917,Pacific Hwy Before Beryl Av,-33.6646650797118,151.122484638591,0,121021403,Asquith - Mount Colah,Sydney - North Sydney and Hornsby,POINT (151.1224901080481 -33.664652387044136)
207918,"Hunt Reserve, Pacific Hwy",-33.6635942254054,151.123252407834,0,121021403,Asquith - Mount Colah,Sydney - North Sydney and Hornsby,POINT (151.12325787732462 -33.663581532801636)
207919,Pacific Hwy Before Excelsior Rd,-33.6611178825053,151.126442042442,0,121021403,Asquith - Mount Colah,Sydney - North Sydney and Hornsby,POINT (151.1264475118095 -33.66110519018089)
207920,Pacific Hwy Opp Excelsior Rd,-33.6612736940302,151.126632671203,0,121021403,Asquith - Mount Colah,Sydney - North Sydney and Hornsby,POINT (151.1266381405227 -33.66126100172462)
207921,Pacific Hwy Opp Playfair Rd,-33.6689368650946,151.118141239605,0,121021403,Asquith - Mount Colah,Sydney - North Sydney and Hornsby,POINT (151.11814670911028 -33.66892417205293)
207922,Pacific Hwy Opp Mt Colah Uniting Church,-33.6735153569853,151.112702044358,0,121021403,Asquith - Mount Colah,Sydney - North Sydney and Hornsby,POINT (151.11270751402643 -33.67350266346994)
207923,Pacific Hwy Before Yirra Rd,-33.6759237412807,151.112353478881,0,121021403,Asquith - Mount Colah,Sydney - North Sydney and Hornsby,POINT (151.1123589482785 -33.67591104774988)
207924,Pacific Hwy After Yirra Rd,-33.6769018052074,151.112475558685,0,121021403,Asquith - Mount Colah,Sydney - North Sydney and Hornsby,POINT (151.11248102793502 -33.67688911169481)
207925,Pacific Hwy Before Willarong Rd,-33.6787527294644,151.111550750853,0,121021403,Asquith - Mount Colah,Sydney - North Sydney and Hornsby,POINT (151.11155621998813 -33.67874003587883)
208011,"Mount Kuring-gai Station, Pacific Hwy",-33.653724025114,151.136561025695,0,121021403,Asquith - Mount Colah,Sydney - North Sydney and Hornsby,POINT (151.13656649461078 -33.65371133367938)
208015,Pacific Hwy Before Alicia Rd,-33.658210712635,151.131194767153,0,121021403,Asquith - Mount Colah,Sydney - North Sydney and Hornsby,POINT (151.13120023623296 -33.658198020732435)
208016,Pacific Hwy Before Nyara Rd,-33.6568461316968,151.133467526,0,121021403,Asquith - Mount Colah,Sydney - North Sydney and Hornsby,POINT (151.1334729949391 -33.656833439996184)
208017,Pacific Hwy Before Glenview Rd,-33.655724434393,151.135213130813,0,121021403,Asquith - Mount Colah,Sydney - North Sydney and Hornsby,POINT (151.13521859965374 -33.65571174284698)
208018,Pacific Hwy Opp Mount Kuring-gai Station,-33.653734120182,151.136259833174,0,121021403,Asquith - Mount Colah,Sydney - North Sydney and Hornsby,POINT (151.13626530213114 -33.65372142871941)
208111,"Berowra Station, Pacific Hwy",-33.6231740273039,151.152815119048,0,121021404,Berowra - Brooklyn - Cowan,Sydney - North Sydney and Hornsby,POINT (151.15282058972602 -33.623161337167765)
208112,Pacific Hwy Opp Berowra Station,-33.6225341532022,151.153355186043,0,121021404,Berowra - Brooklyn - Cowan,Sydney - North Sydney and Hornsby,POINT (151.15336065672966 -33.62252146311187)
208113,Pacific Hwy Before Yallambee Rd,-33.6298356034773,151.148169851181,0,121021404,Berowra - Brooklyn - Cowan,Sydney - North Sydney and Hornsby,POINT (151.14817532163053 -33.62982291295538)
208114,Pacific Hwy At Waratah Rd,-33.6267611842209,151.148226881289,0,121021404,Berowra - Brooklyn - Cowan,Sydney - North Sydney and Hornsby,POINT (151.14823235213967 -33.62674849368265)
208115,"Berowra RSL, Pacific Hwy",-33.6233601806001,151.152102457965,0,121021404,Berowra - Brooklyn - Cowan,Sydney - North Sydney and Hornsby,POINT (151.1521079287192 -33.62334749039887)
208116,Pacific Hwy Opp 935,-33.6298186580993,151.148406001539,0,121021404,Berowra - Brooklyn - Cowan,Sydney - North Sydney and Hornsby,POINT (151.1484114719573 -33.62980596759929)
208149,Pacific Hwy After Collingridge Way,-33.6364302536738,151.145513506661,0,121021404,Berowra - Brooklyn - Cowan,Sydney - North Sydney and Hornsby,POINT (151.14551897660922 -33.63641756295097)
208150,Pacific Hwy Opp Foster Way,-33.6359231714941,151.146124708286,0,121021404,Berowra - Brooklyn - Cowan,Sydney - North Sydney and Hornsby,POINT (151.14613017821512 -33.635910480824606)
2120163,Pennant Hills Rd After Loch Maree Av,-33.7283820495483,151.084167667192,0,121021406,Normanhurst - Thornleigh - Westleigh,Sydney - North Sydney and Hornsby,POINT (151.08417313361738 -33.728369353766745)
212024,Pennant Hills Rd At Railway Pde,-33.7317617455628,151.079518273679,0,121021406,Normanhurst - Thornleigh - Westleigh,Sydney - North Sydney and Hornsby,POINT (151.07952374031666 -33.73174904937315)
212025,Pennant Hills Rd Opp Nelson St,-33.7245728105102,151.088451228983,0,121021406,Normanhurst - Thornleigh - Westleigh,Sydney - North Sydney and Hornsby,POINT (151.08845669530558 -33.7245601150998)
212026,Pennant Hills Rd Before Trelawney St,-33.7257153674721,151.084698931722,0,121021406,Normanhurst - Thornleigh - Westleigh,Sydney - North Sydney and Hornsby,POINT (151.08470439842657 -33.72570267172115)
212027,Pennant Hills Rd At Station St,-33.7318971359977,151.079783514262,0,121021406,Normanhurst - Thornleigh - Westleigh,Sydney - North Sydney and Hornsby,POINT (151.07978898084386 -33.73188443983365)
212032,Pennant Hills Rd After Phyllis Av,-33.7273952253218,151.083764981069,0,121021406,Normanhurst - Thornleigh - Westleigh,Sydney - North Sydney and Hornsby,POINT (151.08377044768304 -33.7273825294959)
213022,Parramatta Rd After Sloane St,-33.8873270432877,151.141263875879,0,120031395,Haberfield - Summer Hill,Sydney - Inner West,POINT (151.14126931293882 -33.88731435393233)
213039,"Summer Hill Station, Carlton Cres",-33.890314065277,151.138448180997,0,120031395,Haberfield - Summer Hill,Sydney - Inner West,POINT (151.13845361806008 -33.89030137568038)
213040,Carlton Cres Opp Summer Hill Station,-33.8906281031629,151.138755083448,0,120031395,Haberfield - Summer Hill,Sydney - Inner West,POINT (151.13876052042508 -33.89061541359706)
2131111,"Ashfield Station, Liverpool Rd, Stand E",-33.8889735626773,151.125245815224,0,120031677,Ashfield - South,Sydney - Inner West,POINT (151.12525125435718 -33.888960871842336)
213146,"Ashfield Station, Liverpool Rd, Stand G",-33.8893873131968,151.125535866347,0,120031677,Ashfield - South,Sydney - Inner West,POINT (151.1255413053833 -33.889374622391735)
213212,The Strand Opp Croydon Station,-33.8834569911261,151.114554705879,0,120031679,Croydon,Sydney - Inner West,POINT (151.11456014728108 -33.8834442992578)
213220,Parramatta Rd At Croydon Rd,-33.8729977750241,151.125804369172,0,120031679,Croydon,Sydney - Inner West,POINT (151.12580981036237 -33.87298508412912)
213268,"Croydon Station, The Strand",-33.8835508935764,151.114710467216,0,120031679,Croydon,Sydney - Inner West,POINT (151.11471590858326 -33.88353820172325)
213460,Parramatta Rd After Burwood Rd,-33.8689071434903,151.104792893491,0,120031678,Burwood (NSW),Sydney - Inner West,POINT (151.10479833823547 -33.86889445061218)
213464,"Burwood Station, Railway Pde, Stand A",-33.8771966730573,151.102900285894,0,120031678,Burwood (NSW),Sydney - Inner West,POINT (151.1029057298017 -33.87718398006133)
213466,"Burwood Station, Railway Pde, Stand C",-33.8772898611671,151.102267403029,0,120031678,Burwood (NSW),Sydney - Inner West,POINT (151.10227284701486 -33.87727716811294)
213516,"Strathfield Station, Albert Rd, Stand G",-33.8719101682933,151.093627318072,0,120031680,Strathfield - East,Sydney - Inner West,POINT (151.0936327640135 -33.87189747439833)
2135221,Parramatta Rd Before Roberts St,-33.8677788233855,151.097825936115,0,120031680,Strathfield - East,Sydney - Inner West,POINT (151.0978313820073 -33.867766129851795)
2137160,Parramatta Rd At Lloyd George Av,-33.867411030514,151.097235863173,0,120011383,Concord - Mortlake - Cabarita,Sydney - Inner West,POINT (151.09724130919895 -33.86739833692287)
213721,Parramatta Rd Opp Neich Pde,-33.8686491388437,151.104424075917,0,120011383,Concord - Mortlake - Cabarita,Sydney - Inner West,POINT (151.10442952074874 -33.868636445929475)
214012,The Crescent Opp Homebush Station,-33.867199654782,151.086251606167,0,120031396,Homebush,Sydney - Inner West,POINT (151.0862570537933 -33.86718696016867)
214021,"Flemington Station, The Crescent",-33.8652394452521,151.070906850196,0,120031396,Homebush,Sydney - Inner West,POINT (151.0709123002803 -33.8652267491999)
214027,"Homebush Station, The Crescent",-33.8668123776682,151.085703859721,0,120031396,Homebush,Sydney - Inner West,POINT (151.0857093074774 -33.866799683001254)
214039,The Crescent After Kessell Av,-33.8654686532152,151.072149084527,0,120031396,Homebush,Sydney - Inner West,POINT (151.07215453440293 -33.86545595727995)
G2000420,Kent St After Market St,-33.870371631255,151.204700425759,0,117031644,Sydney (North) - Millers Point,Sydney - City and Inner South,POINT (151.20470585601353 -33.870358947696054)
G2000422,Kent St After Druitt St,-33.8720848381291,151.204924998692,0,117031644,Sydney (North) - Millers Point,Sydney - City and Inner South,POINT (151.20493042868455 -33.87207215460314)
G2000427,Clarence St At King St,-33.8689575418175,151.205214220527,0,117031644,Sydney (North) - Millers Point,Sydney - City and Inner South,POINT (151.20521965089782 -33.8689448582966)
G200721,"Broadway Shopping Centre, Broadway",-33.8842816597411,151.196028582578,0,117031646,Ultimo,Sydney - City and Inner South,POINT (151.19603401220658 -33.884268975470135)
G200815,Broadway At Buckland St,-33.8844884152123,151.197626759228,0,117031639,Chippendale,Sydney - City and Inner South,POINT (151.19763218860012 -33.88447573109196)
G204079,Parramatta Rd Before Catherine St,-33.8877256177205,151.160956560767,0,120021675,Leichhardt,Sydney - Inner West,POINT (151.16096199495388 -33.88771293020253)
G204518,Parramatta Rd At Haberfield Rd,-33.8866885306153,151.140692791008,0,120031395,Haberfield - Summer Hill,Sydney - Inner West,POINT (151.14069822823507 -33.88667584120228)
G204670,Parramatta Rd Before Arlington St,-33.8726570249651,151.125755539879,0,120011386,Five Dock - Abbotsford,Sydney - Inner West,POINT (151.12576098112194 -33.872644334063196)
G204924,Parramatta Rd Before Phillip St,-33.8882222683795,151.162255545515,0,117021327,Petersham - Stanmore,Sydney - City and Inner South,POINT (151.16226097944937 -33.888209580986064)
G205016,Parramatta Rd Before Lyons Rd,-33.8862354380586,151.178601550038,0,117031331,Glebe - Forest Lodge,Sydney - City and Inner South,POINT (151.17860698189872 -33.886222752175314)
G205023,Parramatta Rd At Missenden Rd,-33.8861521829653,151.179991105851,0,117031638,Camperdown - Darlington,Sydney - City and Inner South,POINT (151.17999653752398 -33.886139497211026)
G206013,"Victoria Cross, Miller St",-33.8394556280509,151.20663812032,0,121041417,North Sydney - Lavender Bay,Sydney - North Sydney and Hornsby,POINT (151.20664355444487 -33.83944294445598)
G206024,Miller St Before Blue St,-33.8401381259967,151.206704012983,0,121041417,North Sydney - Lavender Bay,Sydney - North Sydney and Hornsby,POINT (151.20670944700697 -33.840125442412734)
G206027,"Greenwood Plaza, Pacific Hwy",-33.839853478253,151.207650996236,0,121041417,North Sydney - Lavender Bay,Sydney - North Sydney and Hornsby,POINT (151.20765643016284 -33.83984079475546)
G206052,"Victoria Cross, Miller St",-33.8384856019621,151.207076376711,0,121041417,North Sydney - Lavender Bay,Sydney - North Sydney and Hornsby,POINT (151.2070818109034 -33.83847291840131)
G206058,Lavender St Opp Cliff St,-33.8435374895675,151.210315361262,0,121041417,North Sydney - Lavender Bay,Sydney - North Sydney and Hornsby,POINT (151.21032079431413 -33.84352480634465)
G206067,Pacific Hwy At Walker St,-33.8401918933294,151.208293854609,0,121041417,North Sydney - Lavender Bay,Sydney - North Sydney and Hornsby,POINT (151.20829928839862 -33.840179209894266)
G206426,Pacific Hwy Opp Cobden Av,-33.8157098721157,151.178465971839,0,121011401,St Leonards - Naremburn,Sydney - North Sydney and Hornsby,POINT (151.17847141316813 -33.815697185724986)
G206429,"Gore Hill Technology Park, Pacific Hwy",-33.8197169660672,151.184371650561,0,121011401,St Leonards - Naremburn,Sydney - North Sydney and Hornsby,POINT (151.18437709051062 -33.819704280255486)
G2065136,"TAFE St Leonards, Pacific Hwy",-33.8214323703216,151.185858699201,0,121011401,St Leonards - Naremburn,Sydney - North Sydney and Hornsby,POINT (151.18586413870858 -33.821419684660675)
G2065137,Pacific Hwy After Falcon St,-33.8281191190671,151.201158948749,0,121041414,Crows Nest - Waverton,Sydney - North Sydney and Hornsby,POINT (151.20116438517627 -33.82810643488103)
G2065141,Pacific Hwy Opp Campbell St,-33.8184042793227,151.182699205257,0,121011685,Greenwich - Riverview,Sydney - North Sydney and Hornsby,POINT (151.18270464562113 -33.818391593345766)
G206524,Pacific Hwy After Shirley Rd,-33.827175824261,151.200022364866,0,121041414,Crows Nest - Waverton,Sydney - North Sydney and Hornsby,POINT (151.20002780158197 -33.82716313996221)
G2066223,Epping Rd After Sam Johnson Way,-33.8060974259679,151.152860488623,0,121011686,Lane Cove,Sydney - North Sydney and Hornsby,POINT (151.1528659348926 -33.806084737122816)
G2066226,Pacific Hwy Opp Hotham Pde,-33.816063242704,151.178407624281,0,121011686,Lane Cove,Sydney - North Sydney and Hornsby,POINT (151.17841306557116 -33.81605055631032)
G2066230,Epping Rd Opp Orion Rd,-33.8059548625745,151.153080247648,0,121011399,Chatswood (West) - Lane Cove North,Sydney - North Sydney and Hornsby,POINT (151.1530856939053 -33.805942173748896)
G207613,Pacific Hwy At Woolcott Av,-33.7162551119442,151.108542476486,0,121021579,Wahroonga (West) - Waitara,Sydney - North Sydney and Hornsby,POINT (151.10854794105705 -33.71624241834276)
G2076145,Pacific Hwy Before Ingram Rd,-33.7156790324716,151.108795324702,0,121021579,Wahroonga (West) - Waitara,Sydney - North Sydney and Hornsby,POINT (151.10880078931376 -33.715666338889626)
G207615,Pennant Hills Rd After Stuart Av,-33.7246087167525,151.08954204894,0,121021406,Normanhurst - Thornleigh - Westleigh,Sydney - North Sydney and Hornsby,POINT (151.08954751510254 -33.7245960214437)
G2076150,"Normanhurst Boys High School, Pennant Hills Rd",-33.7219928034176,151.10291803316,0,121021406,Normanhurst - Thornleigh - Westleigh,Sydney - North Sydney and Hornsby,POINT (151.10292349776728 -33.721980109333565)
G2076151,"Abbotsleigh College, Woonona Av",-33.7159410657075,151.113907763674,0,121031412,Wahroonga (East) - Warrawee,Sydney - North Sydney and Hornsby,POINT (151.11391322752368 -33.715928372602825)
G207616,Pennant Hills Rd At Russell Av,-33.7192736423773,151.106918172976,0,121021579,Wahroonga (West) - Waitara,Sydney - North Sydney and Hornsby,POINT (151.10692363737618 -33.71926094864606)
G207618,Pennant Hills Rd After Kenley Rd,-33.7235750475924,151.093267053887,0,121021406,Normanhurst - Thornleigh - Westleigh,Sydney - North Sydney and Hornsby,POINT (151.09327251965698 -33.723562352622466)
G207621,"Abbotsleigh College,  Pacific Hwy",-33.7194024357482,151.115216091979,0,121031412,Wahroonga (East) - Warrawee,Sydney - North Sydney and Hornsby,POINT (151.1152215551815 -33.71938974278955)
G207622,Pacific Hwy Before Lucinda Av,-33.7189059943983,151.111731191903,0,121031412,Wahroonga (East) - Warrawee,Sydney - North Sydney and Hornsby,POINT (151.1117366556674 -33.71889330111205)
G2076229,"Loreto College South, Osborn Rd",-33.7260137540555,151.096887640743,0,121021406,Normanhurst - Thornleigh - Westleigh,Sydney - North Sydney and Hornsby,POINT (151.09689310567313 -33.7260010594392)
G207623,Pacific Hwy Before Woonona Av,-33.718730443002,151.112402103061,0,121031412,Wahroonga (East) - Warrawee,Sydney - North Sydney and Hornsby,POINT (151.11240756675335 -33.7187177497769)
G207661,"Normahurst Boys High School, Denman Pde",-33.7203694405686,151.099983250985,0,121021406,Normanhurst - Thornleigh - Westleigh,Sydney - North Sydney and Hornsby,POINT (151.09998871622597 -33.72035674620033)
G207664,Pacific Hwy At Carden Av,-33.7131262064372,151.107800201578,0,121021579,Wahroonga (West) - Waitara,Sydney - North Sydney and Hornsby,POINT (151.10780566667123 -33.71311351274474)
G207665,Pennant Hills Rd Opp Russell Av,-33.7193262157301,151.107233374772,0,121021579,Wahroonga (West) - Waitara,Sydney - North Sydney and Hornsby,POINT (151.10723883912033 -33.71931352202853)
G207666,Pennant Hills Rd Opp Normanhurst Boys High School,-33.7222598214134,151.103017022279,0,121021406,Normanhurst - Thornleigh - Westleigh,Sydney - North Sydney and Hornsby,POINT (151.10302248683664 -33.72224712734044)
G207667,"Normanhurst Public School, Pennant Hills Rd",-33.7244576161972,151.097891904763,0,121021406,Normanhurst - Thornleigh - Westleigh,Sydney - North Sydney and Hornsby,POINT (151.09789736975733 -33.724444921663306)
G207668,Pennant Hills Rd At Campbell Av,-33.7237124324473,151.092928524568,0,121021406,Normanhurst - Thornleigh - Westleigh,Sydney - North Sydney and Hornsby,POINT (151.0929339903679 -33.72369973744688)
G207712,Pacific Hwy Before Yardley Av,-33.711693441384,151.105909773601,0,121021579,Wahroonga (West) - Waitara,Sydney - North Sydney and Hornsby,POINT (151.10591523915386 -33.711680747505675)
G2077157,Pacific Hwy At Edgeworth David Av,-33.7058362520085,151.099151269281,0,121021577,Hornsby - East,Sydney - North Sydney and Hornsby,POINT (151.0991567365746 -33.705823557460675)
G2077158,Pacific Hwy At James St,-33.709027237619,151.100467503206,0,121021577,Hornsby - East,Sydney - North Sydney and Hornsby,POINT (151.10047296988776 -33.70901454321597)
G207731,Pacific Hwy Opp Bouvardia St,-33.6896145705936,151.10601109551,0,121021403,Asquith - Mount Colah,Sydney - North Sydney and Hornsby,POINT (151.10601656398694 -33.68960187656936)
G207735,"Barker College, Pacific Hwy",-33.7090048041006,151.099787213905,0,121021577,Hornsby - East,Sydney - North Sydney and Hornsby,POINT (151.09979268068648 -33.70899210963419)
G207736,Pacific Hwy Opp Leonard St,-33.7077749830343,151.09856431563,0,121021577,Hornsby - East,Sydney - North Sydney and Hornsby,POINT (151.09856978274908 -33.707762288445565)
G207737,Pacific Hwy Opp Westfield Hornsby,-33.7051442075292,151.098827257225,0,121021577,Hornsby - East,Sydney - North Sydney and Hornsby,POINT (151.09883272465675 -33.705131512946394)
G207745,Pacific Hwy At Mills Av,-33.6831437791263,151.110650007416,0,121021403,Asquith - Mount Colah,Sydney - North Sydney and Hornsby,POINT (151.11065547609482 -33.68313108548788)
G207746,Pacific Hwy Opp Rupert St,-33.6806547895906,151.110984007882,0,121021403,Asquith - Mount Colah,Sydney - North Sydney and Hornsby,POINT (151.1109894768445 -33.68064209596571)
G207747,Pacific Hwy Opp Mills Av,-33.6830891168451,151.11093840661,0,121021403,Asquith - Mount Colah,Sydney - North Sydney and Hornsby,POINT (151.1109438752551 -33.68307642323312)
G207748,"Asquith High School, Peats Ferry Rd",-33.6907088517981,151.103724187961,0,121021403,Asquith - Mount Colah,Sydney - North Sydney and Hornsby,POINT (151.10372965661733 -33.69069615756894)
G207749,Pacific Hwy Opp Asquith Bowling And Recreation Club,-33.6910934179305,151.101101636204,0,121021578,Hornsby - West,Sydney - North Sydney and Hornsby,POINT (151.10110710518185 -33.69108072346024)
G207750,Pacific Hwy Opp Galston Rd,-33.6917831427084,151.098784605055,0,121021578,Hornsby - West,Sydney - North Sydney and Hornsby,POINT (151.0987900742704 -33.69177044802762)
G207751,Peats Ferry Rd Opp Regis Hornsby,-33.6938647918624,151.098506324339,0,121021578,Hornsby - West,Sydney - North Sydney and Hornsby,POINT (151.09851179331704 -33.69385209717041)
G207752,"Motor Registry, Pacific Hwy",-33.6965884473076,151.098431043088,0,121021578,Hornsby - West,Sydney - North Sydney and Hornsby,POINT (151.09843651171443 -33.69657575262777)
G207753,"Hornsby College, Pacific Hwy",-33.699605892873,151.097377969086,0,121021578,Hornsby - West,Sydney - North Sydney and Hornsby,POINT (151.09738343746068 -33.69959319811652)
G207754,Pacific Hwy Opp Hornsby Park,-33.7018422650972,151.097053104538,0,121021578,Hornsby - West,Sydney - North Sydney and Hornsby,POINT (151.09705857266135 -33.701829570326254)
G207913,Pacific Hwy At Rupert St,-33.6800304404857,151.110792577399,0,121021403,Asquith - Mount Colah,Sydney - North Sydney and Hornsby,POINT (151.11079804647179 -33.68001774683862)
G207914,Pacific Hwy Before Yirra Rd,-33.6764775243846,151.112229006109,0,121021403,Asquith - Mount Colah,Sydney - North Sydney and Hornsby,POINT (151.1122344754505 -33.6764648308461)
G207915,"Mt Colah Uniting Church, Pacific Hwy",-33.6734707052227,151.11241971947,0,121021403,Asquith - Mount Colah,Sydney - North Sydney and Hornsby,POINT (151.11242518918448 -33.67345801168078)
G207916,Pacific Hwy After Playfair Rd,-33.6676167066054,151.119629961121,0,121021403,Asquith - Mount Colah,Sydney - North Sydney and Hornsby,POINT (151.1196354305906 -33.66760401369293)
G207917,Pacific Hwy Before Beryl Av,-33.6646650797118,151.122484638591,0,121021403,Asquith - Mount Colah,Sydney - North Sydney and Hornsby,POINT (151.1224901080481 -33.664652387044136)
G207918,"Hunt Reserve, Pacific Hwy",-33.6636539619375,151.123352241797,0,121021403,Asquith - Mount Colah,Sydney - North Sydney and Hornsby,POINT (151.12335771126553 -33.663641269343444)
G207919,Pacific Hwy Before Excelsior Rd,-33.6611178825053,151.126442042442,0,121021403,Asquith - Mount Colah,Sydney - North Sydney and Hornsby,POINT (151.1264475118095 -33.66110519018089)
G207920,Pacific Hwy Opp Excelsior Rd,-33.6612646980726,151.126632240981,0,121021403,Asquith - Mount Colah,Sydney - North Sydney and Hornsby,POINT (151.12663771030194 -33.66125200576692)
G207921,Pacific Hwy Opp Playfair Rd,-33.6689368650946,151.118141239605,0,121021403,Asquith - Mount Colah,Sydney - North Sydney and Hornsby,POINT (151.11814670911028 -33.66892417205293)
G207922,Pacific Hwy Opp Mt Colah Uniting Church,-33.6735157156448,151.112691284697,0,121021403,Asquith - Mount Colah,Sydney - North Sydney and Hornsby,POINT (151.1126967543669 -33.67350302212844)
G207924,Pacific Hwy After Yirra Rd,-33.6769021638788,151.112464798599,0,121021403,Asquith - Mount Colah,Sydney - North Sydney and Hornsby,POINT (151.1124702678505 -33.676889470365225)
G207925,Pacific Hwy Before Willarong Rd,-33.6787620841759,151.111540419459,0,121021403,Asquith - Mount Colah,Sydney - North Sydney and Hornsby,POINT (151.11154588859432 -33.678749390589445)
G208015,Pacific Hwy Before Alicia Rd,-33.658210712635,151.131194767153,0,121021403,Asquith - Mount Colah,Sydney - North Sydney and Hornsby,POINT (151.13120023623296 -33.658198020732435)
G208016,Pacific Hwy Before Nyara Rd,-33.6568461316968,151.133467526,0,121021403,Asquith - Mount Colah,Sydney - North Sydney and Hornsby,POINT (151.1334729949391 -33.656833439996184)
G208017,Pacific Hwy Before Glenview Rd,-33.655724434393,151.135213130813,0,121021403,Asquith - Mount Colah,Sydney - North Sydney and Hornsby,POINT (151.13521859965374 -33.65571174284698)
G208113,Pacific Hwy Before Yallambee Rd,-33.6298528723182,151.148192222574,0,121021404,Berowra - Brooklyn - Cowan,Sydney - North Sydney and Hornsby,POINT (151.14819769301806 -33.62984018179849)
G208114,Pacific Hwy At Waratah Rd,-33.6267611842209,151.148226881289,0,121021404,Berowra - Brooklyn - Cowan,Sydney - North Sydney and Hornsby,POINT (151.14823235213967 -33.62674849368265)
G208115,"Berowra RSL, Pacific Hwy",-33.6233511848777,151.152102025712,0,121021404,Berowra - Brooklyn - Cowan,Sydney - North Sydney and Hornsby,POINT (151.15210749646747 -33.623338494676375)
G208116,Pacific Hwy Opp 935,-33.6298283765661,151.148384926032,0,121021404,Berowra - Brooklyn - Cowan,Sydney - North Sydney and Hornsby,POINT (151.14839039645202 -33.62981568606418)
G208149,Pacific Hwy After Collingridge Way,-33.6364579633433,151.145493292799,0,121021404,Berowra - Brooklyn - Cowan,Sydney - North Sydney and Hornsby,POINT (151.1454987627464 -33.636445272618765)
G208150,Pacific Hwy Opp Foster Way,-33.6359235327093,151.146113953757,0,121021404,Berowra - Brooklyn - Cowan,Sydney - North Sydney and Hornsby,POINT (151.14611942368757 -33.635910842038804)
G2120163,Pennant Hills Rd After Loch Maree Av,-33.7283820495483,151.084167667192,0,121021406,Normanhurst - Thornleigh - Westleigh,Sydney - North Sydney and Hornsby,POINT (151.08417313361738 -33.728369353766745)
G212024,Pennant Hills Rd At Railway Pde,-33.7317797383376,151.079519126583,0,121021406,Normanhurst - Thornleigh - Westleigh,Sydney - North Sydney and Hornsby,POINT (151.0795245932181 -33.73176704214816)
G212025,Pennant Hills Rd Opp Nelson St,-33.7245728105102,151.088451228983,0,121021406,Normanhurst - Thornleigh - Westleigh,Sydney - North Sydney and Hornsby,POINT (151.08845669530558 -33.7245601150998)
G212026,Pennant Hills Rd Before Trelawney St,-33.7257153674721,151.084698931722,0,121021406,Normanhurst - Thornleigh - Westleigh,Sydney - North Sydney and Hornsby,POINT (151.08470439842657 -33.72570267172115)
G212027,Pennant Hills Rd At Station St,-33.7318888522806,151.07976155301,0,121021406,Normanhurst - Thornleigh - Westleigh,Sydney - North Sydney and Hornsby,POINT (151.0797670195961 -33.73187615611445)
