stop_id,stop_name,stop_lat,stop_lon,wheelchair_boarding,sa2_code21,sa2_name21,sa4_name21,geometry
200039,"Central Station, Eddy Av, Stand A",-33.8822064874687,151.20666465471,0,117031645,Sydney (South) - Haymarket,Sydney - City and Inner South,POINT (151.20666465471 -33.8822064874687)
200054,"Central Station, Eddy Av, Stand D",-33.8820421431408,151.20699145565,0,117031645,Sydney (South) - Haymarket,Sydney - City and Inner South,POINT (151.20699145565 -33.8820421431408)
200060,Central Station,-33.8840842535493,151.206292455081,0,117031645,Sydney (South) - Haymarket,Sydney - City and Inner South,POINT (151.206292455081 -33.8840842535493)
201510,Redfern Station,-33.8916900512711,151.198866071817,0,117031642,Redfern,Sydney - City and Inner South,POINT (151.198866071817 -33.8916900512711)
201646,"Redfern Station, Gibbons St, Stand B",-33.8933293130144,151.198881722942,0,117031642,Redfern,Sydney - City and Inner South,POINT (151.198881722942 -33.8933293130144)
204230,"St Peters Station, King St",-33.9063142029908,151.181117167927,0,117031640,Newtown (NSW),Sydney - City and Inner South,POINT (151.181117167927 -33.9063142029908)
204311,King St Opp St Peters Station,-33.9064227004899,151.181371008764,0,117031330,Erskineville - Alexandria,Sydney - City and Inner South,POINT (151.181371008764 -33.9064227004899)
204313,Erskineville Rd At Charles St,-33.8997132561368,151.184727384289,0,117031330,Erskineville - Alexandria,Sydney - City and Inner South,POINT (151.184727384289 -33.8997132561368)
204320,Erskineville Rd At Prospect St,-33.8996853464514,151.183958865838,0,117031330,Erskineville - Alexandria,Sydney - City and Inner South,POINT (151.183958865838 -33.8996853464514)
204410,St Peters Station,-33.9072729813888,151.180742630338,0,117021328,Sydenham - Tempe - St Peters,Sydney - City and Inner South,POINT (151.180742630338 -33.9072729813888)
204420,Sydenham Station,-33.914744895685,151.166064870029,0,117021328,Sydenham - Tempe - St Peters,Sydney - City and Inner South,POINT (151.166064870029 -33.914744895685)
204424,Princes Hwy After Gannon St,-33.9248434613655,151.160526263987,0,117021328,Sydenham - Tempe - St Peters,Sydney - City and Inner South,POINT (151.160526263987 -33.9248434613655)
204442,Princes Hwy At Fanning St,-33.924336037387,151.161409442477,0,117021328,Sydenham - Tempe - St Peters,Sydney - City and Inner South,POINT (151.161409442477 -33.924336037387)
2076119,Malsbury Rd Opp Normanhurst Station,-33.7203735971993,151.097147590855,0,121021406,Normanhurst - Thornleigh - Westleigh,Sydney - North Sydney and Hornsby,POINT (151.097147590855 -33.7203735971993)
207620,Normanhurst Station,-33.7208266271426,151.097072104535,0,121021406,Normanhurst - Thornleigh - Westleigh,Sydney - North Sydney and Hornsby,POINT (151.097072104535 -33.7208266271426)
207652,"Normanhurst Station, Malsbury Rd",-33.7208704284853,151.096567397243,0,121021406,Normanhurst - Thornleigh - Westleigh,Sydney - North Sydney and Hornsby,POINT (151.096567397243 -33.7208704284853)
207720,Hornsby Station,-33.7034747936335,151.098359728641,0,121021577,Hornsby - East,Sydney - North Sydney and Hornsby,POINT (151.098359728641 -33.7034747936335)
2077277,"Hornsby Station, George St",-33.703567008899,151.098838462491,0,121021577,Hornsby - East,Sydney - North Sydney and Hornsby,POINT (151.098838462491 -33.703567008899)
207760,"Hornsby Station, Stand D",-33.7033664270727,151.098095839332,0,121021578,Hornsby - West,Sydney - North Sydney and Hornsby,POINT (151.098095839332 -33.7033664270727)
212010,Thornleigh Station,-33.7318969534448,151.078155078868,0,121021406,Normanhurst - Thornleigh - Westleigh,Sydney - North Sydney and Hornsby,POINT (151.078155078868 -33.7318969534448)
212051,The Esplanade Opp Thornleigh Station,-33.7314553253403,151.077886114363,0,121021406,Normanhurst - Thornleigh - Westleigh,Sydney - North Sydney and Hornsby,POINT (151.077886114363 -33.7314553253403)
212052,"Thornleigh Station, The Esplanade",-33.7316234076858,151.07798035267,0,121021406,Normanhurst - Thornleigh - Westleigh,Sydney - North Sydney and Hornsby,POINT (151.07798035267 -33.7316234076858)
213510,Strathfield Station,-33.8716720139339,151.094285645918,0,120031680,Strathfield - East,Sydney - Inner West,POINT (151.094285645918 -33.8716720139339)
213511,"Strathfield Station, Everton Rd, Stand D",-33.8712286968075,151.094340056165,0,120031680,Strathfield - East,Sydney - Inner West,POINT (151.094340056165 -33.8712286968075)
213563,"Strathfield Station, Albert Rd, Stand F",-33.8717575947145,151.09360922012,0,120031680,Strathfield - East,Sydney - Inner West,POINT (151.09360922012 -33.8717575947145)
2137112,"Concord Fire Station, Concord Rd",-33.8581249188743,151.092255519693,0,120011672,Concord West - North Strathfield,Sydney - Inner West,POINT (151.092255519693 -33.8581249188743)
213718,Concord Rd Opp Concord Fire Station,-33.8586758300849,151.092217040691,0,120011672,Concord West - North Strathfield,Sydney - Inner West,POINT (151.092217040691 -33.8586758300849)
213820,Rhodes Station,-33.8304918906223,151.087049334924,0,120011673,Rhodes,Sydney - Inner West,POINT (151.087049334924 -33.8304918906223)
213828,Concord Rd At Nirranda St,-33.8487550588502,151.08978852917,0,120011672,Concord West - North Strathfield,Sydney - Inner West,POINT (151.08978852917 -33.8487550588502)
213835,Concord Rd Before Victoria Av,-33.8480630361322,151.08946392675,0,120011672,Concord West - North Strathfield,Sydney - Inner West,POINT (151.08946392675 -33.8480630361322)
213858,"Rhodes Station, Blaxland Rd",-33.830689854863,151.087328689523,0,120011673,Rhodes,Sydney - Inner West,POINT (151.087328689523 -33.830689854863)
213879,Blaxland Rd Opp Rhodes Station,-33.8306121589844,151.087497732926,0,120011673,Rhodes,Sydney - Inner West,POINT (151.087497732926 -33.8306121589844)
219310,Hurlstone Park Station,-33.9102017864647,151.132483806583,0,120031392,Canterbury (North) - Ashbury,Sydney - Inner West,POINT (151.132483806583 -33.9102017864647)
2193108,"Canterbury Station, Canterbury Rd, Stand G",-33.9123217538866,151.118980446772,0,120031392,Canterbury (North) - Ashbury,Sydney - Inner West,POINT (151.118980446772 -33.9123217538866)
219311,"Hurlstone Park Station, Floss St",-33.9101467254931,151.132513564325,0,120031392,Canterbury (North) - Ashbury,Sydney - Inner West,POINT (151.132513564325 -33.9101467254931)
219312,Floss St Opp Hurlstone Park Station,-33.9101754553742,151.132731084645,0,120031392,Canterbury (North) - Ashbury,Sydney - Inner West,POINT (151.132731084645 -33.9101754553742)
219320,Canterbury Station,-33.9120868218575,151.118731373859,0,120031392,Canterbury (North) - Ashbury,Sydney - Inner West,POINT (151.118731373859 -33.9120868218575)
219321,"Canterbury Station, Canterbury Rd, Stand E",-33.9123880162812,151.118616204748,0,120031392,Canterbury (North) - Ashbury,Sydney - Inner West,POINT (151.118616204748 -33.9123880162812)
219377,Canterbury Rd At Tincombe St,-33.9118988340183,151.119770580196,0,120031392,Canterbury (North) - Ashbury,Sydney - Inner West,POINT (151.119770580196 -33.9118988340183)
220310,Dulwich Hill Station,-33.9110707257574,151.141203564311,0,120031394,Dulwich Hill - Lewisham,Sydney - Inner West,POINT (151.141203564311 -33.9110707257574)
220410,Marrickville Station,-33.9138683970484,151.153356460059,0,117021637,Marrickville - South,Sydney - City and Inner South,POINT (151.153356460059 -33.9138683970484)
2204101,"Marrickville Station, Illawarra Rd",-33.9138696063359,151.153053924768,0,117021637,Marrickville - South,Sydney - City and Inner South,POINT (151.153053924768 -33.9138696063359)
2204102,Illawarra Rd Opp Marrickville Station,-33.9144765293642,151.152424190297,0,117021637,Marrickville - South,Sydney - City and Inner South,POINT (151.152424190297 -33.9144765293642)
2204125,"Sydenham Station, Railway Pde, Stand C",-33.9142612072023,151.166246622717,0,117021328,Sydenham - Tempe - St Peters,Sydney - City and Inner South,POINT (151.166246622717 -33.9142612072023)
220432,Dudley St Opp Dulwich Hill Station,-33.9114797914353,151.141363870507,0,117021637,Marrickville - South,Sydney - City and Inner South,POINT (151.141363870507 -33.9114797914353)
220433,"Dulwich Hill Station, Dudley St",-33.9113942915588,151.142029741744,0,117021637,Marrickville - South,Sydney - City and Inner South,POINT (151.142029741744 -33.9113942915588)
220439,"Sydenham Station, Railway Pde, Stand D",-33.9143757294288,151.166057680928,0,117021328,Sydenham - Tempe - St Peters,Sydney - City and Inner South,POINT (151.166057680928 -33.9143757294288)
220450,"Sydenham Station, Railway Pde, Stand E",-33.9141290600617,151.166423897862,0,117021328,Sydenham - Tempe - St Peters,Sydney - City and Inner South,POINT (151.166423897862 -33.9141290600617)
G204313,Erskineville Rd At Charles St,-33.8997323472529,151.184695903691,0,117031330,Erskineville - Alexandria,Sydney - City and Inner South,POINT (151.184695903691 -33.8997323472529)
G204320,Erskineville Rd At Prospect St,-33.8996857134596,151.183948078829,0,117031330,Erskineville - Alexandria,Sydney - City and Inner South,POINT (151.183948078829 -33.8996857134596)
G204424,Princes Hwy After Gannon St,-33.9248438265587,151.160515473484,0,117021328,Sydenham - Tempe - St Peters,Sydney - City and Inner South,POINT (151.160515473484 -33.9248438265587)
G204442,Princes Hwy At Fanning St,-33.9243450325645,151.161409880643,0,117021328,Sydenham - Tempe - St Peters,Sydney - City and Inner South,POINT (151.161409880643 -33.9243450325645)
G2137112,"Concord Fire Station, Concord Rd",-33.8581249188743,151.092255519693,0,120011672,Concord West - North Strathfield,Sydney - Inner West,POINT (151.092255519693 -33.8581249188743)
G213718,"Concord Fire Station, Concord Rd",-33.8586761886794,151.092206257587,0,120011672,Concord West - North Strathfield,Sydney - Inner West,POINT (151.092206257587 -33.8586761886794)
G213828,Concord Rd At Nirranda St,-33.8487550588502,151.08978852917,0,120011672,Concord West - North Strathfield,Sydney - Inner West,POINT (151.08978852917 -33.8487550588502)
G213835,Concord Rd Before Victoria Av,-33.8480630361322,151.08946392675,0,120011672,Concord West - North Strathfield,Sydney - Inner West,POINT (151.08946392675 -33.8480630361322)
G219377,Canterbury Rd At Tincombe St,-33.9118988340183,151.119770580196,0,120031392,Canterbury (North) - Ashbury,Sydney - Inner West,POINT (151.119770580196 -33.9118988340183)
200020,Circular Quay,-33.8613509430835,151.210813019737,1,117031644,Sydney (North) - Millers Point,Sydney - City and Inner South,POINT (151.210813019737 -33.8613509430835)
200030,Martin Place Station,-33.8678467244384,151.211348512476,1,117031644,Sydney (North) - Millers Point,Sydney - City and Inner South,POINT (151.211348512476 -33.8678467244384)
2000321,"Central Station, Platform 1",-33.8827026104032,151.205857239232,1,117031645,Sydney (South) - Haymarket,Sydney - City and Inner South,POINT (151.205857239232 -33.8827026104032)
2000322,"Central Station, Platform 2",-33.8827514159554,151.206010876138,1,117031645,Sydney (South) - Haymarket,Sydney - City and Inner South,POINT (151.206010876138 -33.8827514159554)
2000323,"Central Station, Platform 3",-33.8827675614993,151.206065683333,1,117031645,Sydney (South) - Haymarket,Sydney - City and Inner South,POINT (151.206065683333 -33.8827675614993)
2000324,"Central Station, Platform 4",-33.8833250903178,151.205833824408,1,117031645,Sydney (South) - Haymarket,Sydney - City and Inner South,POINT (151.205833824408 -33.8833250903178)
2000325,"Central Station, Platform 5",-33.8833505994121,151.205878289466,1,117031645,Sydney (South) - Haymarket,Sydney - City and Inner South,POINT (151.205878289466 -33.8833505994121)
2000326,"Central Station, Platform 6",-33.8834181318625,151.206011242623,1,117031645,Sydney (South) - Haymarket,Sydney - City and Inner South,POINT (151.206011242623 -33.8834181318625)
2000327,"Central Station, Platform 7",-33.8834436408845,151.206055707779,1,117031645,Sydney (South) - Haymarket,Sydney - City and Inner South,POINT (151.206055707779 -33.8834436408845)
2000328,"Central Station, Platform 8",-33.883511541921,151.206177876543,1,117031645,Sydney (South) - Haymarket,Sydney - City and Inner South,POINT (151.206177876543 -33.883511541921)
2000329,"Central Station, Platform 9",-33.8834722438006,151.206273169726,1,117031645,Sydney (South) - Haymarket,Sydney - City and Inner South,POINT (151.206273169726 -33.8834722438006)
2000330,"Central Station, Platform 10",-33.8836218347112,151.206377749266,1,117031645,Sydney (South) - Haymarket,Sydney - City and Inner South,POINT (151.206377749266 -33.8836218347112)
2000331,"Central Station, Platform 11",-33.8836106270638,151.206442015105,1,117031645,Sydney (South) - Haymarket,Sydney - City and Inner South,POINT (151.206442015105 -33.8836106270638)
2000332,"Central Station, Platform 12",-33.8837156130432,151.206533599267,1,117031645,Sydney (South) - Haymarket,Sydney - City and Inner South,POINT (151.206533599267 -33.8837156130432)
2000336,"Central Station, Platform 16",-33.8840680247496,151.2067669833,1,117031645,Sydney (South) - Haymarket,Sydney - City and Inner South,POINT (151.2067669833 -33.8840680247496)
2000337,"Central Station, Platform 17",-33.8841021593045,151.206822676011,1,117031645,Sydney (South) - Haymarket,Sydney - City and Inner South,POINT (151.206822676011 -33.8841021593045)
2000338,"Central Station, Platform 18",-33.884216508501,151.206903918738,1,117031645,Sydney (South) - Haymarket,Sydney - City and Inner South,POINT (151.206903918738 -33.884216508501)
2000339,"Central Station, Platform 19",-33.8841963058392,151.206967742632,1,117031645,Sydney (South) - Haymarket,Sydney - City and Inner South,POINT (151.206967742632 -33.8841963058392)
2000340,"Central Station, Platform 20",-33.8842563177728,151.207057116622,1,117031645,Sydney (South) - Haymarket,Sydney - City and Inner South,POINT (151.207057116622 -33.8842563177728)
2000341,"Central Station, Platform 21",-33.8842810885781,151.207123152013,1,117031645,Sydney (South) - Haymarket,Sydney - City and Inner South,POINT (151.207123152013 -33.8842810885781)
2000342,"Central Station, Platform 22",-33.8843317367759,151.207222868637,1,117031645,Sydney (South) - Haymarket,Sydney - City and Inner South,POINT (151.207222868637 -33.8843317367759)
2000343,"Central Station, Platform 23",-33.8844216838546,151.207227291792,1,117031645,Sydney (South) - Haymarket,Sydney - City and Inner South,POINT (151.207227291792 -33.8844216838546)
2000344,"Central Station, Platform 24",-33.8844064177011,151.207410190451,1,117031645,Sydney (South) - Haymarket,Sydney - City and Inner South,POINT (151.207410190451 -33.8844064177011)
2000345,"Central Station, Platform 25",-33.8845549006032,151.207547127536,1,117031336,Surry Hills,Sydney - City and Inner South,POINT (151.207547127536 -33.8845549006032)
2000351,"Circular Quay Station, Platform 1",-33.8613686537387,151.210295492397,1,117031644,Sydney (North) - Millers Point,Sydney - City and Inner South,POINT (151.210295492397 -33.8613686537387)
2000352,"Circular Quay Station, Platform 2",-33.8612506157136,151.210322088535,1,117031644,Sydney (North) - Millers Point,Sydney - City and Inner South,POINT (151.210322088535 -33.8612506157136)
2000361,"Martin Place Station, Platform 1",-33.8679211680579,151.21180580772,1,117031644,Sydney (North) - Millers Point,Sydney - City and Inner South,POINT (151.21180580772 -33.8679211680579)
2000362,"Martin Place Station, Platform 2",-33.8678034989456,151.211821620176,1,117031644,Sydney (North) - Millers Point,Sydney - City and Inner South,POINT (151.211821620176 -33.8678034989456)
2000371,"Museum Station, Platform 1",-33.876152660443,151.209802055193,1,117031644,Sydney (North) - Millers Point,Sydney - City and Inner South,POINT (151.209802055193 -33.876152660443)
2000372,"Museum Station, Platform 2",-33.8761553811921,151.209985820362,1,117031644,Sydney (North) - Millers Point,Sydney - City and Inner South,POINT (151.209985820362 -33.8761553811921)
2000381,"St James Station, Platform 1",-33.8706629330113,151.211724684041,1,117031644,Sydney (North) - Millers Point,Sydney - City and Inner South,POINT (151.211724684041 -33.8706629330113)
2000382,"St James Station, Platform 2",-33.8706829027625,151.211930888233,1,117031644,Sydney (North) - Millers Point,Sydney - City and Inner South,POINT (151.211930888233 -33.8706829027625)
2000391,"Town Hall Station, Platform 1",-33.8736468928067,151.206935214658,1,117031644,Sydney (North) - Millers Point,Sydney - City and Inner South,POINT (151.206935214658 -33.8736468928067)
2000392,"Town Hall Station, Platform 2",-33.8735610019639,151.206812176154,1,117031644,Sydney (North) - Millers Point,Sydney - City and Inner South,POINT (151.206812176154 -33.8735610019639)
2000393,"Town Hall Station, Platform 3",-33.8736542680685,151.206719546326,1,117031644,Sydney (North) - Millers Point,Sydney - City and Inner South,POINT (151.206719546326 -33.8736542680685)
2000394,"Town Hall Station, Platform 4",-33.8735907117978,151.206997262467,1,117031644,Sydney (North) - Millers Point,Sydney - City and Inner South,POINT (151.206997262467 -33.8735907117978)
2000395,"Town Hall Station, Platform 5",-33.8737289516645,151.206906843349,1,117031644,Sydney (North) - Millers Point,Sydney - City and Inner South,POINT (151.206906843349 -33.8737289516645)
2000396,"Town Hall Station, Platform 6",-33.8736164453732,151.206771695059,1,117031644,Sydney (North) - Millers Point,Sydney - City and Inner South,POINT (151.206771695059 -33.8736164453732)
200040,Museum Station,-33.875571095497,151.209946276726,1,117031644,Sydney (North) - Millers Point,Sydney - City and Inner South,POINT (151.209946276726 -33.875571095497)
2000403,"Wynyard Station, Platform 3",-33.865894094459,151.205744182289,1,117031644,Sydney (North) - Millers Point,Sydney - City and Inner South,POINT (151.205744182289 -33.865894094459)
2000404,"Wynyard Station, Platform 4",-33.8658970431842,151.205657922632,1,117031644,Sydney (North) - Millers Point,Sydney - City and Inner South,POINT (151.205657922632 -33.8658970431842)
2000405,"Wynyard Station, Platform 5",-33.8658702073279,151.205915817825,1,117031644,Sydney (North) - Millers Point,Sydney - City and Inner South,POINT (151.205915817825 -33.8658702073279)
2000406,"Wynyard Station, Platform 6",-33.865881413717,151.205851564979,1,117031644,Sydney (North) - Millers Point,Sydney - City and Inner South,POINT (151.205851564979 -33.865881413717)
200050,St James Station,-33.8701472831878,151.211785721754,1,117031644,Sydney (North) - Millers Point,Sydney - City and Inner South,POINT (151.211785721754 -33.8701472831878)
200070,Town Hall Station,-33.8735389560829,151.206929909395,1,117031644,Sydney (North) - Millers Point,Sydney - City and Inner South,POINT (151.206929909395 -33.8735389560829)
200080,Wynyard Station,-33.865944893566,151.206103096474,1,117031644,Sydney (North) - Millers Point,Sydney - City and Inner South,POINT (151.206103096474 -33.865944893566)
201110,Kings Cross Station,-33.8744834259457,151.222228200568,1,117031333,Potts Point - Woolloomooloo,Sydney - City and Inner South,POINT (151.222228200568 -33.8744834259457)
201171,"Kings Cross Station, Platform 1",-33.874327333426,151.221788438249,1,117031333,Potts Point - Woolloomooloo,Sydney - City and Inner South,POINT (151.221788438249 -33.874327333426)
201172,"Kings Cross Station, Platform 2",-33.8742535265972,151.221838805269,1,117031333,Potts Point - Woolloomooloo,Sydney - City and Inner South,POINT (151.221838805269 -33.8742535265972)
2015111,"Green Square Station, Platform 1",-33.9060706585781,151.202533035061,1,117031330,Erskineville - Alexandria,Sydney - City and Inner South,POINT (151.202533035061 -33.9060706585781)
2015112,"Green Square Station, Platform 2",-33.9061130513325,151.202610758916,1,117031330,Erskineville - Alexandria,Sydney - City and Inner South,POINT (151.202610758916 -33.9061130513325)
2015121,"Macdonaldtown Station, Platform 1",-33.8969103256996,151.185811140429,2,117031642,Redfern,Sydney - City and Inner South,POINT (151.185811140429 -33.8969103256996)
2015122,"Macdonaldtown Station, Platform 2",-33.8969459383021,151.185823688174,2,117031642,Redfern,Sydney - City and Inner South,POINT (151.185823688174 -33.8969459383021)
2015131,"Redfern Station, Platform 1",-33.8917598534298,151.198404931445,2,117031642,Redfern,Sydney - City and Inner South,POINT (151.198404931445 -33.8917598534298)
2015132,"Redfern Station, Platform 2",-33.8918116130136,151.198472295433,2,117031642,Redfern,Sydney - City and Inner South,POINT (151.198472295433 -33.8918116130136)
2015133,"Redfern Station, Platform 3",-33.8918374927891,151.198505977457,2,117031642,Redfern,Sydney - City and Inner South,POINT (151.198505977457 -33.8918374927891)
2015134,"Redfern Station, Platform 4",-33.891879889296,151.19858368586,2,117031642,Redfern,Sydney - City and Inner South,POINT (151.19858368586 -33.891879889296)
2015135,"Redfern Station, Platform 5",-33.8919230221903,151.198639822678,2,117031642,Redfern,Sydney - City and Inner South,POINT (151.198639822678 -33.8919230221903)
2015136,"Redfern Station, Platform 6",-33.8919740451682,151.198728758603,1,117031642,Redfern,Sydney - City and Inner South,POINT (151.198728758603 -33.8919740451682)
2015137,"Redfern Station, Platform 7",-33.8919991883966,151.198784012441,1,117031642,Redfern,Sydney - City and Inner South,POINT (151.198784012441 -33.8919991883966)
2015138,"Redfern Station, Platform 8",-33.892050211257,151.198872948526,2,117031642,Redfern,Sydney - City and Inner South,POINT (151.198872948526 -33.892050211257)
2015139,"Redfern Station, Platform 9",-33.8920929757508,151.198939871444,2,117031642,Redfern,Sydney - City and Inner South,POINT (151.198939871444 -33.8920929757508)
2015140,"Redfern Station, Platform 10",-33.8921526250176,151.199040035151,2,117031642,Redfern,Sydney - City and Inner South,POINT (151.199040035151 -33.8921526250176)
2015141,"Redfern Station, Platform 11",-33.8922888080166,151.199273603789,2,117031642,Redfern,Sydney - City and Inner South,POINT (151.199273603789 -33.8922888080166)
2015142,"Redfern Station, Platform 12",-33.892321840901,151.199361657203,2,117031642,Redfern,Sydney - City and Inner South,POINT (151.199361657203 -33.892321840901)
201520,Macdonaldtown Station,-33.8969593389246,151.185694688756,0,117031642,Redfern,Sydney - City and Inner South,POINT (151.185694688756 -33.8969593389246)
201710,Green Square Station,-33.9060486134087,151.202650813781,1,117031330,Erskineville - Alexandria,Sydney - City and Inner South,POINT (151.202650813781 -33.9060486134087)
202010,Mascot Station,-33.9231763737873,151.1873353984,1,117011635,Mascot,Sydney - City and Inner South,POINT (151.1873353984 -33.9231763737873)
2020101,"International Airport Station, Platform 1",-33.9349169396224,151.165838044172,1,117011325,Sydney Airport,Sydney - City and Inner South,POINT (151.165838044172 -33.9349169396224)
2020102,"International Airport Station, Platform 2",-33.935008353748,151.165799265394,1,117011325,Sydney Airport,Sydney - City and Inner South,POINT (151.165799265394 -33.935008353748)
2020111,"Mascot Station, Platform 1",-33.9231804165273,151.187216709235,1,117011635,Mascot,Sydney - City and Inner South,POINT (151.187216709235 -33.9231804165273)
2020112,"Mascot Station, Platform 2",-33.9231853686684,151.187335839272,1,117011635,Mascot,Sydney - City and Inner South,POINT (151.187335839272 -33.9231853686684)
202020,Sydney Domestic Airport Station,-33.9337438406596,151.180751775356,1,117011325,Sydney Airport,Sydney - City and Inner South,POINT (151.180751775356 -33.9337438406596)
202030,Sydney International Airport Station,-33.9346164433934,151.165931480299,1,117011325,Sydney Airport,Sydney - City and Inner South,POINT (151.165931480299 -33.9346164433934)
202091,"Domestic Airport Station, Platform 1",-33.9335718356187,151.180775782625,1,117011325,Sydney Airport,Sydney - City and Inner South,POINT (151.180775782625 -33.9335718356187)
202092,"Domestic Airport Station, Platform 2",-33.9336812431169,151.180737901538,1,117011325,Sydney Airport,Sydney - City and Inner South,POINT (151.180737901538 -33.9336812431169)
204210,Newtown Station,-33.8979130089729,151.179377370376,1,117031640,Newtown (NSW),Sydney - City and Inner South,POINT (151.179377370376 -33.8979130089729)
204261,"Newtown Station, Platform 1",-33.8978788880614,151.179851112249,1,117031640,Newtown (NSW),Sydney - City and Inner South,POINT (151.179851112249 -33.8978788880614)
204262,"Newtown Station, Platform 2",-33.897941853091,151.179854189917,1,117031640,Newtown (NSW),Sydney - City and Inner South,POINT (151.179854189917 -33.897941853091)
204310,Erskineville Station,-33.900182647139,151.185495903052,0,117031330,Erskineville - Alexandria,Sydney - City and Inner South,POINT (151.185495903052 -33.900182647139)
204331,"Erskineville Station, Platform 1",-33.900278470764,151.185327713009,2,117031330,Erskineville - Alexandria,Sydney - City and Inner South,POINT (151.185327713009 -33.900278470764)
204332,"Erskineville Station, Platform 2",-33.9002931563916,151.185425677174,2,117031330,Erskineville - Alexandria,Sydney - City and Inner South,POINT (151.185425677174 -33.9002931563916)
204333,"Erskineville Station, Platform 3",-33.9003093105374,151.185480493096,2,117031330,Erskineville - Alexandria,Sydney - City and Inner South,POINT (151.185480493096 -33.9003093105374)
204334,"Erskineville Station, Platform 4",-33.9003333581293,151.185568110549,2,117031330,Erskineville - Alexandria,Sydney - City and Inner South,POINT (151.185568110549 -33.9003333581293)
204430,Tempe Station,-33.9239040725931,151.156600378825,0,117021328,Sydenham - Tempe - St Peters,Sydney - City and Inner South,POINT (151.156600378825 -33.9239040725931)
204461,"St Peters Station, Platform 1",-33.9072202865011,151.180437486803,2,117031640,Newtown (NSW),Sydney - City and Inner South,POINT (151.180437486803 -33.9072202865011)
204462,"St Peters Station, Platform 2",-33.907300141033,151.180473809805,2,117021328,Sydenham - Tempe - St Peters,Sydney - City and Inner South,POINT (151.180473809805 -33.907300141033)
204463,"St Peters Station, Platform 3",-33.907388990531,151.180510572774,2,117021328,Sydenham - Tempe - St Peters,Sydney - City and Inner South,POINT (151.180510572774 -33.907388990531)
204464,"St Peters Station, Platform 4",-33.9074868349937,151.180547775727,2,117021328,Sydenham - Tempe - St Peters,Sydney - City and Inner South,POINT (151.180547775727 -33.9074868349937)
204473,"Sydenham Station, Platform 3",-33.9145771337702,151.166229603226,1,117021328,Sydenham - Tempe - St Peters,Sydney - City and Inner South,POINT (151.166229603226 -33.9145771337702)
204474,"Sydenham Station, Platform 4",-33.9146828818004,151.166299600236,1,117021328,Sydenham - Tempe - St Peters,Sydney - City and Inner South,POINT (151.166299600236 -33.9146828818004)
204475,"Sydenham Station, Platform 5",-33.9147440197133,151.166356615635,1,117021328,Sydenham - Tempe - St Peters,Sydney - City and Inner South,POINT (151.166356615635 -33.9147440197133)
204476,"Sydenham Station, Platform 6",-33.9148576659265,151.16645941898,1,117021328,Sydenham - Tempe - St Peters,Sydney - City and Inner South,POINT (151.16645941898 -33.9148576659265)
204483,"Tempe Station, Platform 3",-33.9241293182604,151.156600529751,2,117021328,Sydenham - Tempe - St Peters,Sydney - City and Inner South,POINT (151.156600529751 -33.9241293182604)
204484,"Tempe Station, Platform 4",-33.9241436602461,151.156709309746,2,117021328,Sydenham - Tempe - St Peters,Sydney - City and Inner South,POINT (151.156709309746 -33.9241436602461)
204810,Stanmore Station,-33.8944742355915,151.16414802871,0,117021327,Petersham - Stanmore,Sydney - City and Inner South,POINT (151.16414802871 -33.8944742355915)
204832,"Stanmore Station, Platform 2",-33.8945419497729,151.164010868177,2,117021327,Petersham - Stanmore,Sydney - City and Inner South,POINT (151.164010868177 -33.8945419497729)
204833,"Stanmore Station, Platform 3",-33.894631171252,151.164036820961,2,117021327,Petersham - Stanmore,Sydney - City and Inner South,POINT (151.164036820961 -33.894631171252)
204910,Petersham Station,-33.8938633052507,151.155572040209,1,117021327,Petersham - Stanmore,Sydney - City and Inner South,POINT (151.155572040209 -33.8938633052507)
204920,Lewisham Station,-33.8934170262598,151.147706406683,0,120031394,Dulwich Hill - Lewisham,Sydney - Inner West,POINT (151.147706406683 -33.8934170262598)
204981,"Lewisham Station, Platform 1",-33.8932825579774,151.147418972931,2,120031394,Dulwich Hill - Lewisham,Sydney - Inner West,POINT (151.147418972931 -33.8932825579774)
204982,"Lewisham Station, Platform 2",-33.893364607668,151.147390538455,2,120031394,Dulwich Hill - Lewisham,Sydney - Inner West,POINT (151.147390538455 -33.893364607668)
204991,"Petersham Station, Platform 1",-33.8938709588753,151.155345520147,1,117021327,Petersham - Stanmore,Sydney - City and Inner South,POINT (151.155345520147 -33.8938709588753)
204992,"Petersham Station, Platform 2",-33.8939421923049,151.15537058973,1,117021327,Petersham - Stanmore,Sydney - City and Inner South,POINT (151.15537058973 -33.8939421923049)
206010,North Sydney Station,-33.8411500483648,151.207412328748,1,121041417,North Sydney - Lavender Bay,Sydney - North Sydney and Hornsby,POINT (151.207412328748 -33.8411500483648)
2060101,"North Sydney Station, Platform 1",-33.841173347575,151.207521446863,1,121041417,North Sydney - Lavender Bay,Sydney - North Sydney and Hornsby,POINT (151.207521446863 -33.841173347575)
2060102,"North Sydney Station, Platform 2",-33.8412186899264,151.207512875671,1,121041417,North Sydney - Lavender Bay,Sydney - North Sydney and Hornsby,POINT (151.207512875671 -33.8412186899264)
2060103,"North Sydney Station, Platform 3",-33.8411985560675,151.207047597917,1,121041417,North Sydney - Lavender Bay,Sydney - North Sydney and Hornsby,POINT (151.207047597917 -33.8411985560675)
2060104,"North Sydney Station, Platform 4",-33.8412438984049,151.207039026468,1,121041417,North Sydney - Lavender Bay,Sydney - North Sydney and Hornsby,POINT (151.207039026468 -33.8412438984049)
2060111,"Waverton Station, Platform 1",-33.8378114094005,151.197531107107,1,121041414,Crows Nest - Waverton,Sydney - North Sydney and Hornsby,POINT (151.197531107107 -33.8378114094005)
2060112,"Waverton Station, Platform 2",-33.8378330752205,151.197424197703,1,121041414,Crows Nest - Waverton,Sydney - North Sydney and Hornsby,POINT (151.197424197703 -33.8378330752205)
206020,Waverton Station,-33.8376183006616,151.197381288364,1,121041414,Crows Nest - Waverton,Sydney - North Sydney and Hornsby,POINT (151.197381288364 -33.8376183006616)
206110,Milsons Point Station,-33.8459361020109,151.211836965459,1,121041417,North Sydney - Lavender Bay,Sydney - North Sydney and Hornsby,POINT (151.211836965459 -33.8459361020109)
206141,"Milsons Point Station, Platform 1",-33.8457659403762,151.211807004791,1,121041417,North Sydney - Lavender Bay,Sydney - North Sydney and Hornsby,POINT (151.211807004791 -33.8457659403762)
206142,"Milsons Point Station, Platform 2",-33.8457865123066,151.211732430176,1,121041417,North Sydney - Lavender Bay,Sydney - North Sydney and Hornsby,POINT (151.211732430176 -33.8457865123066)
206410,Artarmon Station,-33.808542405208,151.184700888768,1,121011682,Artarmon,Sydney - North Sydney and Hornsby,POINT (151.184700888768 -33.808542405208)
206451,"Artarmon Station, Platform 1",-33.8085668269509,151.184777633712,1,121011682,Artarmon,Sydney - North Sydney and Hornsby,POINT (151.184777633712 -33.8085668269509)
206452,"Artarmon Station, Platform 2",-33.8086042721226,151.184736286314,1,121011682,Artarmon,Sydney - North Sydney and Hornsby,POINT (151.184736286314 -33.8086042721226)
206510,Wollstonecraft Station,-33.831944794515,151.191748505037,1,121041414,Crows Nest - Waverton,Sydney - North Sydney and Hornsby,POINT (151.191748505037 -33.831944794515)
2065152,"St Leonards Station, Platform 2",-33.821996565534,151.194166065248,1,121011401,St Leonards - Naremburn,Sydney - North Sydney and Hornsby,POINT (151.194166065248 -33.821996565534)
2065153,"St Leonards Station, Platform 3",-33.8220006042854,151.194047517091,1,121011401,St Leonards - Naremburn,Sydney - North Sydney and Hornsby,POINT (151.194047517091 -33.8220006042854)
2065161,"Wollstonecraft Station, Platform 1",-33.8320055569499,151.191816254153,1,121041414,Crows Nest - Waverton,Sydney - North Sydney and Hornsby,POINT (151.191816254153 -33.8320055569499)
2065162,"Wollstonecraft Station, Platform 2",-33.8320268503259,151.191720128252,1,121041414,Crows Nest - Waverton,Sydney - North Sydney and Hornsby,POINT (151.191720128252 -33.8320268503259)
206520,St Leonards Station,-33.8222319028877,151.19413439444,1,121011401,St Leonards - Naremburn,Sydney - North Sydney and Hornsby,POINT (151.19413439444 -33.8222319028877)
206710,Chatswood Station,-33.7970938529267,151.180894309455,1,121011684,Chatswood - East,Sydney - North Sydney and Hornsby,POINT (151.180894309455 -33.7970938529267)
2067141,"Chatswood Station, Platform 1",-33.7974762545413,151.181042438872,1,121011684,Chatswood - East,Sydney - North Sydney and Hornsby,POINT (151.181042438872 -33.7974762545413)
2067144,"Chatswood Station, Platform 4",-33.7974839358232,151.180816180391,1,121011684,Chatswood - East,Sydney - North Sydney and Hornsby,POINT (151.180816180391 -33.7974839358232)
206910,Roseville Station,-33.7844361686666,151.177666734666,1,121031408,Lindfield - Roseville,Sydney - North Sydney and Hornsby,POINT (151.177666734666 -33.7844361686666)
2069131,"Roseville Station, Platform 1",-33.784305259701,151.177541672553,1,121031408,Lindfield - Roseville,Sydney - North Sydney and Hornsby,POINT (151.177541672553 -33.784305259701)
2069132,"Roseville Station, Platform 2",-33.7843700528416,151.177490872298,1,121031408,Lindfield - Roseville,Sydney - North Sydney and Hornsby,POINT (151.177490872298 -33.7843700528416)
207010,Lindfield Station,-33.7755213580091,151.169270678738,1,121031408,Lindfield - Roseville,Sydney - North Sydney and Hornsby,POINT (151.169270678738 -33.7755213580091)
2070141,"Lindfield Station, Platform 1",-33.7753508117713,151.169251612951,1,121031408,Lindfield - Roseville,Sydney - North Sydney and Hornsby,POINT (151.169251612951 -33.7753508117713)
2070142,"Lindfield Station, Platform 2",-33.7753810785676,151.169155978085,1,121031408,Lindfield - Roseville,Sydney - North Sydney and Hornsby,POINT (151.169155978085 -33.7753810785676)
2070143,"Lindfield Station, Platform 3",-33.7754106162322,151.169081886372,1,121031408,Lindfield - Roseville,Sydney - North Sydney and Hornsby,POINT (151.169081886372 -33.7754106162322)
207110,Killara Station,-33.7656990836047,151.161846590484,0,121031407,Gordon - Killara,Sydney - North Sydney and Hornsby,POINT (151.161846590484 -33.7656990836047)
207191,"Killara Station, Platform 1",-33.7655656077672,151.161796974576,2,121031407,Gordon - Killara,Sydney - North Sydney and Hornsby,POINT (151.161796974576 -33.7655656077672)
207192,"Killara Station, Platform 2",-33.765612767596,151.161734529621,2,121031407,Gordon - Killara,Sydney - North Sydney and Hornsby,POINT (151.161734529621 -33.765612767596)
207210,Gordon Station,-33.7559114770957,151.154447552941,1,121031407,Gordon - Killara,Sydney - North Sydney and Hornsby,POINT (151.154447552941 -33.7559114770957)
207261,"Gordon Station, Platform 1",-33.7556632336411,151.154327688904,1,121031407,Gordon - Killara,Sydney - North Sydney and Hornsby,POINT (151.154327688904 -33.7556632336411)
207262,"Gordon Station, Platform 2",-33.7556841290875,151.154242403422,1,121031407,Gordon - Killara,Sydney - North Sydney and Hornsby,POINT (151.154242403422 -33.7556841290875)
207263,"Gordon Station, Platform 3",-33.7557230154905,151.154157987159,1,121031407,Gordon - Killara,Sydney - North Sydney and Hornsby,POINT (151.154157987159 -33.7557230154905)
207310,Pymble Station,-33.7447796245226,151.142261413778,0,121031409,Pymble,Sydney - North Sydney and Hornsby,POINT (151.142261413778 -33.7447796245226)
2073161,"Pymble Station, Platform 1",-33.7446947344769,151.142106327712,2,121031409,Pymble,Sydney - North Sydney and Hornsby,POINT (151.142106327712 -33.7446947344769)
2073162,"Pymble Station, Platform 2",-33.7447677854221,151.142077488824,2,121031409,Pymble,Sydney - North Sydney and Hornsby,POINT (151.142077488824 -33.7447677854221)
207410,Turramurra Station,-33.7325863525625,151.128636438183,1,121031411,Turramurra,Sydney - North Sydney and Hornsby,POINT (151.128636438183 -33.7325863525625)
2074181,"Turramurra Station, Platform 1",-33.7324535786708,151.128565363567,1,121031411,Turramurra,Sydney - North Sydney and Hornsby,POINT (151.128565363567 -33.7324535786708)
2074182,"Turramurra Station, Platform 2",-33.7324920861322,151.128491722285,1,121031411,Turramurra,Sydney - North Sydney and Hornsby,POINT (151.128491722285 -33.7324920861322)
2074191,"Warrawee Station, Platform 1",-33.724264343699,151.121799756976,1,121031412,Wahroonga (East) - Warrawee,Sydney - North Sydney and Hornsby,POINT (151.121799756976 -33.724264343699)
2074192,"Warrawee Station, Platform 2",-33.7243035666897,151.12170458711,1,121031412,Wahroonga (East) - Warrawee,Sydney - North Sydney and Hornsby,POINT (151.12170458711 -33.7243035666897)
207420,Warrawee Station,-33.7243985626506,151.121827749895,1,121031412,Wahroonga (East) - Warrawee,Sydney - North Sydney and Hornsby,POINT (151.121827749895 -33.7243985626506)
207610,Wahroonga Station,-33.7180452177365,151.117544904553,1,121031412,Wahroonga (East) - Warrawee,Sydney - North Sydney and Hornsby,POINT (151.117544904553 -33.7180452177365)
2076231,"Normanhurst Station, Platform 1",-33.7208046995463,151.097189671768,2,121021406,Normanhurst - Thornleigh - Westleigh,Sydney - North Sydney and Hornsby,POINT (151.097189671768 -33.7208046995463)
2076232,"Normanhurst Station, Platform 2",-33.7207255224349,151.09713198992,2,121021406,Normanhurst - Thornleigh - Westleigh,Sydney - North Sydney and Hornsby,POINT (151.09713198992 -33.7207255224349)
2076241,"Wahroonga Station, Platform 1",-33.7178257105921,151.117372672873,1,121031412,Wahroonga (East) - Warrawee,Sydney - North Sydney and Hornsby,POINT (151.117372672873 -33.7178257105921)
2076242,"Wahroonga Station, Platform 2",-33.7178732068403,151.117299467858,1,121031412,Wahroonga (East) - Warrawee,Sydney - North Sydney and Hornsby,POINT (151.117299467858 -33.7178732068403)
207710,Waitara Station,-33.7103651300041,151.104940809242,0,121021579,Wahroonga (West) - Waitara,Sydney - North Sydney and Hornsby,POINT (151.104940809242 -33.7103651300041)
2077291,"Asquith Station, Platform 1",-33.688613438102,151.108205374966,2,121021403,Asquith - Mount Colah,Sydney - North Sydney and Hornsby,POINT (151.108205374966 -33.688613438102)
2077292,"Asquith Station, Platform 2",-33.6885536908523,151.108105519384,2,121021403,Asquith - Mount Colah,Sydney - North Sydney and Hornsby,POINT (151.108105519384 -33.6885536908523)
207730,Asquith Station,-33.6885234768332,151.10820108751,0,121021403,Asquith - Mount Colah,Sydney - North Sydney and Hornsby,POINT (151.10820108751 -33.6885234768332)
2077301,"Hornsby Station, Platform 1",-33.7032333803697,151.098574636433,1,121021577,Hornsby - East,Sydney - North Sydney and Hornsby,POINT (151.098574636433 -33.7032333803697)
2077302,"Hornsby Station, Platform 2",-33.7032096110442,151.098476480518,1,121021577,Hornsby - East,Sydney - North Sydney and Hornsby,POINT (151.098476480518 -33.7032096110442)
2077303,"Hornsby Station, Platform 3",-33.7032031186892,151.098400707675,1,121021577,Hornsby - East,Sydney - North Sydney and Hornsby,POINT (151.098400707675 -33.7032031186892)
2077304,"Hornsby Station, Platform 4",-33.7031789915359,151.09831331538,1,121021578,Hornsby - West,Sydney - North Sydney and Hornsby,POINT (151.09831331538 -33.7031789915359)
2077305,"Hornsby Station, Platform 5",-33.7031642182103,151.098215587519,1,121021578,Hornsby - West,Sydney - North Sydney and Hornsby,POINT (151.098215587519 -33.7031642182103)
2077311,"Waitara Station, Platform 1",-33.710244200625,151.104784105814,2,121021579,Wahroonga (West) - Waitara,Sydney - North Sydney and Hornsby,POINT (151.104784105814 -33.710244200625)
2077312,"Waitara Station, Platform 2",-33.7102996106755,151.104743620845,2,121021579,Wahroonga (West) - Waitara,Sydney - North Sydney and Hornsby,POINT (151.104743620845 -33.7102996106755)
207910,Mount Colah Station,-33.6713371145702,151.115065997277,0,121021403,Asquith - Mount Colah,Sydney - North Sydney and Hornsby,POINT (151.115065997277 -33.6713371145702)
2079101,"Mount Colah Station, Platform 1",-33.6714472205242,151.115006591237,2,121021403,Asquith - Mount Colah,Sydney - North Sydney and Hornsby,POINT (151.115006591237 -33.6714472205242)
2079102,"Mount Colah Station, Platform 2",-33.6714043931775,151.114939889154,2,121021403,Asquith - Mount Colah,Sydney - North Sydney and Hornsby,POINT (151.114939889154 -33.6714043931775)
208010,Mount Kuring-gai Station,-33.653589069105,151.13682391124,0,121021403,Asquith - Mount Colah,Sydney - North Sydney and Hornsby,POINT (151.13682391124 -33.653589069105)
208041,"Mount Kuring-gai Station, Platform 1",-33.6534789554251,151.136883278398,2,121021403,Asquith - Mount Colah,Sydney - North Sydney and Hornsby,POINT (151.136883278398 -33.6534789554251)
208042,"Mount Kuring-gai Station, Platform 2",-33.6534732047264,151.136786035695,2,121021403,Asquith - Mount Colah,Sydney - North Sydney and Hornsby,POINT (151.136786035695 -33.6534732047264)
208110,Berowra Station,-33.6233851756329,151.153234536554,1,121021404,Berowra - Brooklyn - Cowan,Sydney - North Sydney and Hornsby,POINT (151.153234536554 -33.6233851756329)
208120,Cowan Station,-33.5935671349035,151.171774236126,0,121021404,Berowra - Brooklyn - Cowan,Sydney - North Sydney and Hornsby,POINT (151.171774236126 -33.5935671349035)
208171,"Berowra Station, Platform 1",-33.6235758941062,151.153189851899,1,121021404,Berowra - Brooklyn - Cowan,Sydney - North Sydney and Hornsby,POINT (151.153189851899 -33.6235758941062)
208172,"Berowra Station, Platform 2",-33.6235237284014,151.153133493226,1,121021404,Berowra - Brooklyn - Cowan,Sydney - North Sydney and Hornsby,POINT (151.153133493226 -33.6235237284014)
208173,"Berowra Station, Platform 3",-33.6234535712431,151.153076269909,1,121021404,Berowra - Brooklyn - Cowan,Sydney - North Sydney and Hornsby,POINT (151.153076269909 -33.6234535712431)
208181,"Cowan Station, Platform 1",-33.5934757273183,151.17181289368,2,121021404,Berowra - Brooklyn - Cowan,Sydney - North Sydney and Hornsby,POINT (151.17181289368 -33.5934757273183)
208182,"Cowan Station, Platform 2",-33.5934696361276,151.171726468618,2,121021404,Berowra - Brooklyn - Cowan,Sydney - North Sydney and Hornsby,POINT (151.171726468618 -33.5934696361276)
208310,Hawkesbury River Station,-33.5468434435127,151.226575476183,1,121021404,Berowra - Brooklyn - Cowan,Sydney - North Sydney and Hornsby,POINT (151.226575476183 -33.5468434435127)
208341,"Hawkesbury River Station, Platform 1",-33.5469813069631,151.226496117895,1,121021404,Berowra - Brooklyn - Cowan,Sydney - North Sydney and Hornsby,POINT (151.226496117895 -33.5469813069631)
208342,"Hawkesbury River Station, Platform 2",-33.5469115512462,151.226428153886,1,121021404,Berowra - Brooklyn - Cowan,Sydney - North Sydney and Hornsby,POINT (151.226428153886 -33.5469115512462)
2120211,"Thornleigh Station, Platform 1",-33.7319355238275,151.07835102385,2,121021406,Normanhurst - Thornleigh - Westleigh,Sydney - North Sydney and Hornsby,POINT (151.07835102385 -33.7319355238275)
2120212,"Thornleigh Station, Platform 2",-33.731875398669,151.078261900297,2,121021406,Normanhurst - Thornleigh - Westleigh,Sydney - North Sydney and Hornsby,POINT (151.078261900297 -33.731875398669)
2120213,"Thornleigh Station, Platform 3",-33.7318246260318,151.07816243578,2,121021406,Normanhurst - Thornleigh - Westleigh,Sydney - North Sydney and Hornsby,POINT (151.07816243578 -33.7318246260318)
213010,Summer Hill Station,-33.8904406498063,151.138702797748,1,120031395,Haberfield - Summer Hill,Sydney - Inner West,POINT (151.138702797748 -33.8904406498063)
213052,"Summer Hill Station, Platform 2",-33.890368970131,151.138958626169,1,120031395,Haberfield - Summer Hill,Sydney - Inner West,POINT (151.138958626169 -33.890368970131)
213053,"Summer Hill Station, Platform 3",-33.8904333904352,151.138918527064,1,120031395,Haberfield - Summer Hill,Sydney - Inner West,POINT (151.138918527064 -33.8904333904352)
213110,Ashfield Station,-33.887637768522,151.125851234765,1,120031677,Ashfield - South,Sydney - Inner West,POINT (151.125851234765 -33.887637768522)
2131121,"Ashfield Station, Platform 1",-33.8874381047839,151.125625531433,1,120031677,Ashfield - South,Sydney - Inner West,POINT (151.125625531433 -33.8874381047839)
2131122,"Ashfield Station, Platform 2",-33.8875115170414,151.125585856741,1,120031677,Ashfield - South,Sydney - Inner West,POINT (151.125585856741 -33.8875115170414)
2131123,"Ashfield Station, Platform 3",-33.8875755718692,151.125556534478,1,120031677,Ashfield - South,Sydney - Inner West,POINT (151.125556534478 -33.8875755718692)
2131124,"Ashfield Station, Platform 4",-33.8876396266928,151.125527212175,1,120031677,Ashfield - South,Sydney - Inner West,POINT (151.125527212175 -33.8876396266928)
2131125,"Ashfield Station, Platform 5",-33.8877126771529,151.125498323625,1,120031677,Ashfield - South,Sydney - Inner West,POINT (151.125498323625 -33.8877126771529)
213210,Croydon Station,-33.8830747904083,151.115206126788,1,120031679,Croydon,Sydney - Inner West,POINT (151.115206126788 -33.8830747904083)
213284,"Croydon Station, Platform 4",-33.8832313015215,151.115375702477,1,120031679,Croydon,Sydney - Inner West,POINT (151.115375702477 -33.8832313015215)
213285,"Croydon Station, Platform 5",-33.8832960760964,151.115324801649,1,120031679,Croydon,Sydney - Inner West,POINT (151.115324801649 -33.8832960760964)
213410,Burwood Station,-33.8771016845813,151.103857156342,1,120031678,Burwood (NSW),Sydney - Inner West,POINT (151.103857156342 -33.8771016845813)
213491,"Burwood Station, Platform 1",-33.8769444375604,151.104249308733,1,120031678,Burwood (NSW),Sydney - Inner West,POINT (151.104249308733 -33.8769444375604)
213492,"Burwood Station, Platform 2",-33.8770347563491,151.104242837366,1,120031678,Burwood (NSW),Sydney - Inner West,POINT (151.104242837366 -33.8770347563491)
213493,"Burwood Station, Platform 3",-33.8771254349548,151.104225580733,1,120031678,Burwood (NSW),Sydney - Inner West,POINT (151.104225580733 -33.8771254349548)
213494,"Burwood Station, Platform 4",-33.8771977619489,151.104218246571,1,120031678,Burwood (NSW),Sydney - Inner West,POINT (151.104218246571 -33.8771977619489)
213495,"Burwood Station, Platform 5",-33.8772704487594,151.104200127123,1,120031678,Burwood (NSW),Sydney - Inner West,POINT (151.104200127123 -33.8772704487594)
213496,"Burwood Station, Platform 6",-33.8773517716504,151.104193224327,1,120031678,Burwood (NSW),Sydney - Inner West,POINT (151.104193224327 -33.8773517716504)
2135231,"Strathfield Station, Platform 1",-33.8712614270976,151.094168792398,1,120031680,Strathfield - East,Sydney - Inner West,POINT (151.094168792398 -33.8712614270976)
2135232,"Strathfield Station, Platform 2",-33.8713078427178,151.094127804924,1,120031680,Strathfield - East,Sydney - Inner West,POINT (151.094127804924 -33.8713078427178)
2135233,"Strathfield Station, Platform 3",-33.8713819641384,151.094066538747,1,120031680,Strathfield - East,Sydney - Inner West,POINT (151.094066538747 -33.8713819641384)
2135234,"Strathfield Station, Platform 4",-33.8714470895148,151.094004842243,1,120031680,Strathfield - East,Sydney - Inner West,POINT (151.094004842243 -33.8714470895148)
2135235,"Strathfield Station, Platform 5",-33.8715032188452,151.09394271543,1,120031680,Strathfield - East,Sydney - Inner West,POINT (151.09394271543 -33.8715032188452)
2135236,"Strathfield Station, Platform 6",-33.8715499932675,151.093890943023,1,120031680,Strathfield - East,Sydney - Inner West,POINT (151.093890943023 -33.8715499932675)
2135237,"Strathfield Station, Platform 7",-33.8716158362831,151.093807676851,1,120031680,Strathfield - East,Sydney - Inner West,POINT (151.093807676851 -33.8716158362831)
2135238,"Strathfield Station, Platform 8",-33.8716626106583,151.093755904303,1,120031680,Strathfield - East,Sydney - Inner West,POINT (151.093755904303 -33.8716626106583)
213710,North Strathfield Station,-33.8591884317189,151.088180615392,1,120011672,Concord West - North Strathfield,Sydney - Inner West,POINT (151.088180615392 -33.8591884317189)
2137171,"North Strathfield Station, Platform 1",-33.8590797619738,151.088197028857,1,120011672,Concord West - North Strathfield,Sydney - Inner West,POINT (151.088197028857 -33.8590797619738)
2137172,"North Strathfield Station, Platform 2",-33.8591013366074,151.088090055564,1,120011672,Concord West - North Strathfield,Sydney - Inner West,POINT (151.088090055564 -33.8591013366074)
2137173,"North Strathfield Station, Platform 3",-33.8591135568162,151.087993436032,1,120011672,Concord West - North Strathfield,Sydney - Inner West,POINT (151.087993436032 -33.8591135568162)
213810,Concord West Station,-33.8486050543235,151.085623760119,1,120011672,Concord West - North Strathfield,Sydney - Inner West,POINT (151.085623760119 -33.8486050543235)
213881,"Concord West Station, Platform 2",-33.8487292107563,151.085683675496,1,120011672,Concord West - North Strathfield,Sydney - Inner West,POINT (151.085683675496 -33.8487292107563)
213882,"Concord West Station, Platform 3",-33.8487324320999,151.08558663801,1,120011672,Concord West - North Strathfield,Sydney - Inner West,POINT (151.08558663801 -33.8487324320999)
213883,"Concord West Station, Platform 4",-33.8487360112813,151.085478818562,1,120011672,Concord West - North Strathfield,Sydney - Inner West,POINT (151.085478818562 -33.8487360112813)
213891,"Rhodes Station, Platform 1",-33.8307876901942,151.087095825474,1,120011673,Rhodes,Sydney - Inner West,POINT (151.087095825474 -33.8307876901942)
213892,"Rhodes Station, Platform 2",-33.8307549265178,151.086997093114,1,120011673,Rhodes,Sydney - Inner West,POINT (151.086997093114 -33.8307549265178)
213893,"Rhodes Station, Platform 3",-33.830749151237,151.08689964728,1,120011673,Rhodes,Sydney - Inner West,POINT (151.08689964728 -33.830749151237)
214010,Homebush Station,-33.8666879506665,151.086194781455,0,120031396,Homebush,Sydney - Inner West,POINT (151.086194781455 -33.8666879506665)
214020,Flemington Station,-33.8649121358055,151.070178414264,1,120031396,Homebush,Sydney - Inner West,POINT (151.070178414264 -33.8649121358055)
214061,"Flemington Station, Platform 1",-33.8647414842926,151.069889473654,1,120031396,Homebush,Sydney - Inner West,POINT (151.069889473654 -33.8647414842926)
214062,"Flemington Station, Platform 2",-33.8648141681006,151.06987132599,1,120031396,Homebush,Sydney - Inner West,POINT (151.06987132599 -33.8648141681006)
214063,"Flemington Station, Platform 3",-33.8648958482094,151.069853605885,1,120031396,Homebush,Sydney - Inner West,POINT (151.069853605885 -33.8648958482094)
214064,"Flemington Station, Platform 4",-33.8649771716218,151.069846669951,1,120031396,Homebush,Sydney - Inner West,POINT (151.069846669951 -33.8649771716218)
214072,"Homebush Station, Platform 2",-33.8666458776579,151.086376395315,2,120031396,Homebush,Sydney - Inner West,POINT (151.086376395315 -33.8666458776579)
214073,"Homebush Station, Platform 3",-33.8667279171531,151.086347906845,2,120031396,Homebush,Sydney - Inner West,POINT (151.086347906845 -33.8667279171531)
214074,"Homebush Station, Platform 4",-33.8667923225701,151.086307775441,2,120031396,Homebush,Sydney - Inner West,POINT (151.086307775441 -33.8667923225701)
214076,"Homebush Station, Platform 6",-33.8669211333766,151.086227512462,1,120031396,Homebush,Sydney - Inner West,POINT (151.086227512462 -33.8669211333766)
214077,"Homebush Station, Platform 7",-33.8670614896757,151.086342224215,1,120031396,Homebush,Sydney - Inner West,POINT (151.086342224215 -33.8670614896757)
2193111,"Canterbury Station, Platform 1",-33.9119738534546,151.118607054655,2,120031392,Canterbury (North) - Ashbury,Sydney - Inner West,POINT (151.118607054655 -33.9119738534546)
2193112,"Canterbury Station, Platform 2",-33.9119033724915,151.118290259531,2,120031392,Canterbury (North) - Ashbury,Sydney - Inner West,POINT (151.118290259531 -33.9119033724915)
2193121,"Hurlstone Park Station, Platform 1",-33.9103004438958,151.132229218214,2,120031392,Canterbury (North) - Ashbury,Sydney - Inner West,POINT (151.132229218214 -33.9103004438958)
2193122,"Hurlstone Park Station, Platform 2",-33.9103792281829,151.132297866443,2,120031392,Canterbury (North) - Ashbury,Sydney - Inner West,POINT (151.132297866443 -33.9103792281829)
220361,"Dulwich Hill Station, Platform 1",-33.9109790432652,151.140982989829,2,120031394,Dulwich Hill - Lewisham,Sydney - Inner West,POINT (151.140982989829 -33.9109790432652)
220362,"Dulwich Hill Station, Platform 2",-33.911052096761,151.140954109135,2,120031394,Dulwich Hill - Lewisham,Sydney - Inner West,POINT (151.140954109135 -33.911052096761)
2204121,"Marrickville Station, Platform 1",-33.913872654242,151.153497157036,1,117021637,Marrickville - South,Sydney - City and Inner South,POINT (151.153497157036 -33.913872654242)
2204122,"Marrickville Station, Platform 2",-33.9139550696868,151.153457934595,1,117021637,Marrickville - South,Sydney - City and Inner South,POINT (151.153457934595 -33.9139550696868)
2000132,"Central Station, Forecourt, Coach Bay 8",-33.8822661487583,151.205446889696,0,117031645,Sydney (South) - Haymarket,Sydney - City and Inner South,POINT (151.205446889696 -33.8822661487583)
2000202,Paddy's Markets Light Rail,-33.8792817221267,151.202610449492,0,117031645,Sydney (South) - Haymarket,Sydney - City and Inner South,POINT (151.202610449492 -33.8792817221267)
2000204,Convention Light Rail,-33.8726792272122,151.198073677434,0,117031645,Sydney (South) - Haymarket,Sydney - City and Inner South,POINT (151.198073677434 -33.8726792272122)
200088,Darling Dr Opp Convention Centre,-33.8725031735336,151.198216262919,0,117031645,Sydney (South) - Haymarket,Sydney - City and Inner South,POINT (151.198216262919 -33.8725031735336)
200091,"Paddy's Market Light Rail, Darling Dr",-33.8792460810229,151.201280018981,0,117031645,Sydney (South) - Haymarket,Sydney - City and Inner South,POINT (151.201280018981 -33.8792460810229)
200092,"Paddy's Market Light Rail, Darling Dr",-33.8792549206941,151.201021198187,0,117031645,Sydney (South) - Haymarket,Sydney - City and Inner South,POINT (151.201021198187 -33.8792549206941)
200812,Railway Square,-33.8836558382517,151.20353827896,0,117031639,Chippendale,Sydney - City and Inner South,POINT (151.20353827896 -33.8836558382517)
200819,"Central Station, Railway Square, Stand N",-33.8840583905823,151.203622874032,0,117031645,Sydney (South) - Haymarket,Sydney - City and Inner South,POINT (151.203622874032 -33.8840583905823)
200914,"Convention Centre, Darling Dr",-33.8729132555779,151.1983443915,0,117031645,Sydney (South) - Haymarket,Sydney - City and Inner South,POINT (151.1983443915 -33.8729132555779)
200919,"The Star, Pirrama Rd",-33.8670038165592,151.195408394051,0,117031641,Pyrmont,Sydney - City and Inner South,POINT (151.195408394051 -33.8670038165592)
200931,Pirrama Rd Opp The Star,-33.867729429644,151.196059601178,0,117031641,Pyrmont,Sydney - City and Inner South,POINT (151.196059601178 -33.867729429644)
200947,The Star Light Rail,-33.8675167216443,151.195163508311,0,117031641,Pyrmont,Sydney - City and Inner South,POINT (151.195163508311 -33.8675167216443)
2000136,"QVB, York St, Stand E",-33.8701191919245,151.206286589015,0,117031644,Sydney (North) - Millers Point,Sydney - City and Inner South,POINT (151.206286589015 -33.8701191919245)
2000142,"Wynyard Station, Clarence St, Stand R",-33.8654933044574,151.204817251106,0,117031644,Sydney (North) - Millers Point,Sydney - City and Inner South,POINT (151.204817251106 -33.8654933044574)
200017,"Central Station, Railway Square, Stand J",-33.8831596526229,151.203557112477,0,117031645,Sydney (South) - Haymarket,Sydney - City and Inner South,POINT (151.203557112477 -33.8831596526229)
2000171,QVB,-33.8716923104495,151.206655526208,0,117031644,Sydney (North) - Millers Point,Sydney - City and Inner South,POINT (151.206655526208 -33.8716923104495)
2000221,"Wynyard Station, Clarence St, Stand Q",-33.8646226548073,151.204720490866,0,117031644,Sydney (North) - Millers Point,Sydney - City and Inner South,POINT (151.204720490866 -33.8646226548073)
2000249,"Town Hall Station, Park St, Stand H",-33.8730582401476,151.207813604716,0,117031644,Sydney (North) - Millers Point,Sydney - City and Inner South,POINT (151.207813604716 -33.8730582401476)
2000252,"Town Hall Station, Park St, Stand K",-33.8732538253722,151.208417301554,0,117031644,Sydney (North) - Millers Point,Sydney - City and Inner South,POINT (151.208417301554 -33.8732538253722)
200031,"Wynyard Station, York St, Stand J",-33.8664405626668,151.2058358308,0,117031644,Sydney (North) - Millers Point,Sydney - City and Inner South,POINT (151.2058358308 -33.8664405626668)
200033,"Wynyard Station, York St, Stand K",-33.8661894468627,151.205801893499,0,117031644,Sydney (North) - Millers Point,Sydney - City and Inner South,POINT (151.205801893499 -33.8661894468627)
2000419,"Wynyard Station, Kent St, Stand V",-33.8655435030049,151.204139283365,0,117031644,Sydney (North) - Millers Point,Sydney - City and Inner South,POINT (151.204139283365 -33.8655435030049)
2000420,Kent St After Market St,-33.8703622679514,151.204710766974,0,117031644,Sydney (North) - Millers Point,Sydney - City and Inner South,POINT (151.204710766974 -33.8703622679514)
2000422,Kent St After Druitt St,-33.8720844695469,151.204935781938,0,117031644,Sydney (North) - Millers Point,Sydney - City and Inner South,POINT (151.204935781938 -33.8720844695469)
2000427,Clarence St At King St,-33.8689575418175,151.205214220527,0,117031644,Sydney (North) - Millers Point,Sydney - City and Inner South,POINT (151.205214220527 -33.8689575418175)
200043,"QVB, York St, Stand C",-33.8719687894743,151.206474689885,0,117031644,Sydney (North) - Millers Point,Sydney - City and Inner South,POINT (151.206474689885 -33.8719687894743)
200064,"Central Station, Railway Square, Stand M",-33.8836703614572,151.203376950025,0,117031639,Chippendale,Sydney - City and Inner South,POINT (151.203376950025 -33.8836703614572)
200721,"Broadway Shopping Centre, Broadway",-33.884263670066,151.196027700301,0,117031646,Ultimo,Sydney - City and Inner South,POINT (151.196027700301 -33.884263670066)
200815,Broadway At Buckland St,-33.884497410031,151.197627200538,0,117031639,Chippendale,Sydney - City and Inner South,POINT (151.197627200538 -33.884497410031)
204079,Parramatta Rd Before Catherine St,-33.8877256177205,151.160956560767,0,120021675,Leichhardt,Sydney - Inner West,POINT (151.160956560767 -33.8877256177205)
204518,Parramatta Rd At Haberfield Rd,-33.8866798982437,151.14068156967,0,120031395,Haberfield - Summer Hill,Sydney - Inner West,POINT (151.14068156967 -33.8866798982437)
204670,Parramatta Rd Before Arlington St,-33.8726570249651,151.125755539879,0,120011386,Five Dock - Abbotsford,Sydney - Inner West,POINT (151.125755539879 -33.8726570249651)
204811,"Stanmore Station, Douglas St",-33.8941571171629,151.163668000945,0,117021327,Petersham - Stanmore,Sydney - City and Inner South,POINT (151.163668000945 -33.8941571171629)
204816,Percival Rd Opp Stanmore Station,-33.8936545776129,151.164140534621,0,117021327,Petersham - Stanmore,Sydney - City and Inner South,POINT (151.164140534621 -33.8936545776129)
204911,"Petersham Station, Trafalgar St",-33.8939212994156,151.156255533985,0,117021327,Petersham - Stanmore,Sydney - City and Inner South,POINT (151.156255533985 -33.8939212994156)
204912,Trafalgar St Opp Petersham Station,-33.8940512431226,151.156143000226,0,117021327,Petersham - Stanmore,Sydney - City and Inner South,POINT (151.156143000226 -33.8940512431226)
204918,"Lewisham Station, Railway Tce",-33.8936830499405,151.148367570713,0,120031394,Dulwich Hill - Lewisham,Sydney - Inner West,POINT (151.148367570713 -33.8936830499405)
204924,Parramatta Rd Before Phillip St,-33.8882222683795,151.162255545515,0,117021327,Petersham - Stanmore,Sydney - City and Inner South,POINT (151.162255545515 -33.8882222683795)
204927,Railway Tce Opp Lewisham Station,-33.8939168286922,151.148649019941,0,120031394,Dulwich Hill - Lewisham,Sydney - Inner West,POINT (151.148649019941 -33.8939168286922)
205016,Parramatta Rd Before Lyons Rd,-33.8862347052321,151.178623120819,0,117031331,Glebe - Forest Lodge,Sydney - City and Inner South,POINT (151.178623120819 -33.8862347052321)
205023,Parramatta Rd At Missenden Rd,-33.8861521829653,151.179991105851,0,117031638,Camperdown - Darlington,Sydney - City and Inner South,POINT (151.179991105851 -33.8861521829653)
206012,"North Sydney Station, Blue St, Stand B",-33.840941392294,151.206926999193,0,121041417,North Sydney - Lavender Bay,Sydney - North Sydney and Hornsby,POINT (151.206926999193 -33.840941392294)
206013,"Victoria Cross, Miller St",-33.8394455280049,151.206670016177,0,121041417,North Sydney - Lavender Bay,Sydney - North Sydney and Hornsby,POINT (151.206670016177 -33.8394455280049)
206024,Miller St Before Blue St,-33.8401381259967,151.206704012983,0,121041417,North Sydney - Lavender Bay,Sydney - North Sydney and Hornsby,POINT (151.206704012983 -33.8401381259967)
206027,"Greenwood Plaza, Pacific Hwy",-33.839853478253,151.207650996236,0,121041417,North Sydney - Lavender Bay,Sydney - North Sydney and Hornsby,POINT (151.207650996236 -33.839853478253)
206052,"Victoria Cross, Miller St",-33.8384859704114,151.207065597716,0,121041417,North Sydney - Lavender Bay,Sydney - North Sydney and Hornsby,POINT (151.207065597716 -33.8384859704114)
206058,Lavender St Opp Cliff St,-33.8435374895675,151.210315361262,0,121041417,North Sydney - Lavender Bay,Sydney - North Sydney and Hornsby,POINT (151.210315361262 -33.8435374895675)
206067,Pacific Hwy At Walker St,-33.8401832671413,151.208282633726,0,121041417,North Sydney - Lavender Bay,Sydney - North Sydney and Hornsby,POINT (151.208282633726 -33.8401832671413)
206121,Alfred St Sth Opp Milsons Point Station,-33.8461996183762,151.211245229434,0,121041417,North Sydney - Lavender Bay,Sydney - North Sydney and Hornsby,POINT (151.211245229434 -33.8461996183762)
206123,"Milsons Point Station, Alfred St Sth",-33.8462555723401,151.211453142461,0,121041417,North Sydney - Lavender Bay,Sydney - North Sydney and Hornsby,POINT (151.211453142461 -33.8462555723401)
206426,Pacific Hwy Opp Cobden Av,-33.8156918818356,151.178465095514,0,121011401,St Leonards - Naremburn,Sydney - North Sydney and Hornsby,POINT (151.178465095514 -33.8156918818356)
206429,"Gore Hill Technology Park, Pacific Hwy",-33.819743584978,151.184383744059,0,121011401,St Leonards - Naremburn,Sydney - North Sydney and Hornsby,POINT (151.184383744059 -33.819743584978)
206430,"TAFE St Leonards, Pacific Hwy",-33.8214959024619,151.186110086019,0,121011401,St Leonards - Naremburn,Sydney - North Sydney and Hornsby,POINT (151.186110086019 -33.8214959024619)
2065135,"St Leonards Station, Pacific Hwy, Stand B",-33.8238166665468,151.193369869698,0,121011685,Greenwich - Riverview,Sydney - North Sydney and Hornsby,POINT (151.193369869698 -33.8238166665468)
2065136,Pacific Hwy Opp TAFE St Leonards,-33.8213396540119,151.185670658534,0,121011685,Greenwich - Riverview,Sydney - North Sydney and Hornsby,POINT (151.185670658534 -33.8213396540119)
2065137,Pacific Hwy After Falcon St,-33.8280561550458,151.201155863547,0,121041414,Crows Nest - Waverton,Sydney - North Sydney and Hornsby,POINT (151.201155863547 -33.8280561550458)
2065141,Pacific Hwy Opp Campbell St,-33.8184042793227,151.182699205257,0,121011685,Greenwich - Riverview,Sydney - North Sydney and Hornsby,POINT (151.182699205257 -33.8184042793227)
206523,"St Leonards Station, Pacific Hwy, Stand A",-33.8231936250534,151.194731985684,0,121011401,St Leonards - Naremburn,Sydney - North Sydney and Hornsby,POINT (151.194731985684 -33.8231936250534)
206524,Pacific Hwy After Shirley Rd,-33.8271754565351,151.200033142538,0,121041414,Crows Nest - Waverton,Sydney - North Sydney and Hornsby,POINT (151.200033142538 -33.8271754565351)
206618,Lane Cove Interchange,-33.8123818738151,151.171654804969,0,121011399,Chatswood (West) - Lane Cove North,Sydney - North Sydney and Hornsby,POINT (151.171654804969 -33.8123818738151)
2066223,Epping Rd After Sam Johnson Way,-33.8060974259679,151.152860488623,0,121011686,Lane Cove,Sydney - North Sydney and Hornsby,POINT (151.152860488623 -33.8060974259679)
2066226,Pacific Hwy Opp Hotham Pde,-33.8160808672525,151.178419277185,0,121011686,Lane Cove,Sydney - North Sydney and Hornsby,POINT (151.178419277185 -33.8160808672525)
2066228,"Lane Cove Interchange, Longueville Rd, Stand C",-33.8124591797024,151.171766503709,0,121011686,Lane Cove,Sydney - North Sydney and Hornsby,POINT (151.171766503709 -33.8124591797024)
2066230,Epping Rd Opp Sam Johnson Way,-33.805945867129,151.153079812303,0,121011399,Chatswood (West) - Lane Cove North,Sydney - North Sydney and Hornsby,POINT (151.153079812303 -33.805945867129)
2066251,"Lane Cove Interchange, Longueville Rd, Stand B",-33.8123506392179,151.171512964718,0,121011399,Chatswood (West) - Lane Cove North,Sydney - North Sydney and Hornsby,POINT (151.171512964718 -33.8123506392179)
207613,Pacific Hwy At Woolcott Av,-33.7162457571647,151.108552812301,0,121021579,Wahroonga (West) - Waitara,Sydney - North Sydney and Hornsby,POINT (151.108552812301 -33.7162457571647)
2076145,Pacific Hwy Before Ingram Rd,-33.7156790324716,151.108795324702,0,121021579,Wahroonga (West) - Waitara,Sydney - North Sydney and Hornsby,POINT (151.108795324702 -33.7156790324716)
207615,Pennant Hills Rd After Stuart Av,-33.7246087167525,151.08954204894,0,121021406,Normanhurst - Thornleigh - Westleigh,Sydney - North Sydney and Hornsby,POINT (151.08954204894 -33.7246087167525)
2076150,"Normanhurst Boys High School, Pennant Hills Rd",-33.7220107956936,151.102918890632,0,121021406,Normanhurst - Thornleigh - Westleigh,Sydney - North Sydney and Hornsby,POINT (151.102918890632 -33.7220107956936)
2076151,"Abbotsleigh College, Woonona Av",-33.7159410657075,151.113907763674,0,121031412,Wahroonga (East) - Warrawee,Sydney - North Sydney and Hornsby,POINT (151.113907763674 -33.7159410657075)
207616,Pennant Hills Rd At Russell Av,-33.7193279775406,151.106909982181,0,121021579,Wahroonga (West) - Waitara,Sydney - North Sydney and Hornsby,POINT (151.106909982181 -33.7193279775406)
207618,Pennant Hills Rd After Kenley Rd,-33.7235750475924,151.093267053887,0,121021406,Normanhurst - Thornleigh - Westleigh,Sydney - North Sydney and Hornsby,POINT (151.093267053887 -33.7235750475924)
207619,"Normanhurst Public School, Pennant Hills Rd",-33.7244032308346,151.097630518021,0,121021406,Normanhurst - Thornleigh - Westleigh,Sydney - North Sydney and Hornsby,POINT (151.097630518021 -33.7244032308346)
207621,"Abbotsleigh College, Pacific Hwy",-33.7194024357482,151.115216091979,0,121031412,Wahroonga (East) - Warrawee,Sydney - North Sydney and Hornsby,POINT (151.115216091979 -33.7194024357482)
207622,Pacific Hwy Before Lucinda Av,-33.7188969983555,151.111730762298,0,121031412,Wahroonga (East) - Warrawee,Sydney - North Sydney and Hornsby,POINT (151.111730762298 -33.7188969983555)
2076229,"Loreto College South, Osborn Rd",-33.7260137540555,151.096887640743,0,121021406,Normanhurst - Thornleigh - Westleigh,Sydney - North Sydney and Hornsby,POINT (151.096887640743 -33.7260137540555)
207623,Pacific Hwy Before Woonona Av,-33.7187300839457,151.112412868363,0,121031412,Wahroonga (East) - Warrawee,Sydney - North Sydney and Hornsby,POINT (151.112412868363 -33.7187300839457)
207661,"Normahurst Boys High School, Denman Pde",-33.7203784367421,151.099983679389,0,121021406,Normanhurst - Thornleigh - Westleigh,Sydney - North Sydney and Hornsby,POINT (151.099983679389 -33.7203784367421)
207664,Pacific Hwy At Carden Av,-33.7131258478342,151.107810966243,0,121021579,Wahroonga (West) - Waitara,Sydney - North Sydney and Hornsby,POINT (151.107810966243 -33.7131258478342)
207665,Pennant Hills Rd Opp Russell Av,-33.7193254985064,151.107254905664,0,121021579,Wahroonga (West) - Waitara,Sydney - North Sydney and Hornsby,POINT (151.107254905664 -33.7193254985064)
207666,Pennant Hills Rd Opp Normanhurst Boys High School,-33.7222594631422,151.103027788149,0,121021406,Normanhurst - Thornleigh - Westleigh,Sydney - North Sydney and Hornsby,POINT (151.103027788149 -33.7222594631422)
207667,Pennant Hills Rd Opp Normanhurst Public School,-33.7245123588468,151.098142525564,0,121021406,Normanhurst - Thornleigh - Westleigh,Sydney - North Sydney and Hornsby,POINT (151.098142525564 -33.7245123588468)
207668,Pennant Hills Rd At Campbell Av,-33.723712075042,151.092939290755,0,121021406,Normanhurst - Thornleigh - Westleigh,Sydney - North Sydney and Hornsby,POINT (151.092939290755 -33.723712075042)
207712,Pacific Hwy Before Yardley Av,-33.711693441384,151.105909773601,0,121021579,Wahroonga (West) - Waitara,Sydney - North Sydney and Hornsby,POINT (151.105909773601 -33.711693441384)
2077157,Pacific Hwy At Edgeworth David Av,-33.7058362520085,151.099151269281,0,121021577,Hornsby - East,Sydney - North Sydney and Hornsby,POINT (151.099151269281 -33.7058362520085)
2077158,Pacific Hwy At James St,-33.709027237619,151.100467503206,0,121021577,Hornsby - East,Sydney - North Sydney and Hornsby,POINT (151.100467503206 -33.709027237619)
2077159,"Waitara Station, Pacific Hwy",-33.7110326353982,151.104918715674,0,121021579,Wahroonga (West) - Waitara,Sydney - North Sydney and Hornsby,POINT (151.104918715674 -33.7110326353982)
207731,Pacific Hwy Opp Bouvardia St,-33.6896145705936,151.10601109551,0,121021403,Asquith - Mount Colah,Sydney - North Sydney and Hornsby,POINT (151.10601109551 -33.6896145705936)
207733,Pacific Hwy Opp Asquith Station,-33.6883294678939,151.10780380994,0,121021403,Asquith - Mount Colah,Sydney - North Sydney and Hornsby,POINT (151.10780380994 -33.6883294678939)
207735,"Barker College, Pacific Hwy",-33.709004088367,151.099808742423,0,121021577,Hornsby - East,Sydney - North Sydney and Hornsby,POINT (151.099808742423 -33.709004088367)
207736,Pacific Hwy Opp Leonard St,-33.7077749830343,151.09856431563,0,121021577,Hornsby - East,Sydney - North Sydney and Hornsby,POINT (151.09856431563 -33.7077749830343)
207737,Pacific Hwy Opp Westfield Hornsby,-33.7051348535738,151.098837592977,0,121021577,Hornsby - East,Sydney - North Sydney and Hornsby,POINT (151.098837592977 -33.7051348535738)
207745,Pacific Hwy At Mills Av,-33.6831524166616,151.110661197218,0,121021403,Asquith - Mount Colah,Sydney - North Sydney and Hornsby,POINT (151.110661197218 -33.6831524166616)
207746,Pacific Hwy Opp Rupert St,-33.6806547895906,151.110984007882,0,121021403,Asquith - Mount Colah,Sydney - North Sydney and Hornsby,POINT (151.110984007882 -33.6806547895906)
207747,Pacific Hwy Opp Mills Av,-33.6830981129489,151.110938835552,0,121021403,Asquith - Mount Colah,Sydney - North Sydney and Hornsby,POINT (151.110938835552 -33.6830981129489)
207748,"Asquith High School, Peats Ferry Rd",-33.6907088517981,151.103724187961,0,121021403,Asquith - Mount Colah,Sydney - North Sydney and Hornsby,POINT (151.103724187961 -33.6907088517981)
207749,Pacific Hwy Opp Asquith Bowling And Recreation Club,-33.6911016985045,151.101123588269,0,121021578,Hornsby - West,Sydney - North Sydney and Hornsby,POINT (151.101123588269 -33.6911016985045)
207750,Pacific Hwy Opp Galston Rd,-33.6917831427084,151.098784605055,0,121021578,Hornsby - West,Sydney - North Sydney and Hornsby,POINT (151.098784605055 -33.6917831427084)
207751,Peats Ferry Rd Opp Regis Hornsby,-33.6938647918624,151.098506324339,0,121021578,Hornsby - West,Sydney - North Sydney and Hornsby,POINT (151.098506324339 -33.6938647918624)
207752,"Motor Registry, Pacific Hwy",-33.6965884473076,151.098431043088,0,121021578,Hornsby - West,Sydney - North Sydney and Hornsby,POINT (151.098431043088 -33.6965884473076)
207753,Pacific Hwy Opp TAFE Northern Sydney,-33.6996757173037,151.097445970226,0,121021578,Hornsby - West,Sydney - North Sydney and Hornsby,POINT (151.097445970226 -33.6996757173037)
207754,Pacific Hwy Opp Hornsby Park,-33.7018415499733,151.097074631343,0,121021578,Hornsby - West,Sydney - North Sydney and Hornsby,POINT (151.097074631343 -33.7018415499733)
207756,"Hornsby Station, Stand F",-33.7029047585432,151.098160123236,0,121021578,Hornsby - West,Sydney - North Sydney and Hornsby,POINT (151.098160123236 -33.7029047585432)
207783,"Asquith Station, Pacific Hwy",-33.6877513148134,151.108660102327,0,121021403,Asquith - Mount Colah,Sydney - North Sydney and Hornsby,POINT (151.108660102327 -33.6877513148134)
207911,"Mt Colah Station, Pacific Hwy",-33.6713068716727,151.114892130882,0,121021403,Asquith - Mount Colah,Sydney - North Sydney and Hornsby,POINT (151.114892130882 -33.6713068716727)
207912,Pacific Hwy Opp Mt Colah Station,-33.6708430481361,151.115020874005,0,121021403,Asquith - Mount Colah,Sydney - North Sydney and Hornsby,POINT (151.115020874005 -33.6708430481361)
207913,Pacific Hwy At Rupert St,-33.6800304404857,151.110792577399,0,121021403,Asquith - Mount Colah,Sydney - North Sydney and Hornsby,POINT (151.110792577399 -33.6800304404857)
207914,Pacific Hwy Before Yirra Rd,-33.6767682687128,151.112156652638,0,121021403,Asquith - Mount Colah,Sydney - North Sydney and Hornsby,POINT (151.112156652638 -33.6767682687128)
207915,"Mt Colah Uniting Church, Pacific Hwy",-33.6734707052227,151.11241971947,0,121021403,Asquith - Mount Colah,Sydney - North Sydney and Hornsby,POINT (151.11241971947 -33.6734707052227)
207916,Pacific Hwy After Playfair Rd,-33.6676167066054,151.119629961121,0,121021403,Asquith - Mount Colah,Sydney - North Sydney and Hornsby,POINT (151.119629961121 -33.6676167066054)
207917,Pacific Hwy Before Beryl Av,-33.6646650797118,151.122484638591,0,121021403,Asquith - Mount Colah,Sydney - North Sydney and Hornsby,POINT (151.122484638591 -33.6646650797118)
207918,"Hunt Reserve, Pacific Hwy",-33.6635942254054,151.123252407834,0,121021403,Asquith - Mount Colah,Sydney - North Sydney and Hornsby,POINT (151.123252407834 -33.6635942254054)
207919,Pacific Hwy Before Excelsior Rd,-33.6611178825053,151.126442042442,0,121021403,Asquith - Mount Colah,Sydney - North Sydney and Hornsby,POINT (151.126442042442 -33.6611178825053)
207920,Pacific Hwy Opp Excelsior Rd,-33.6612736940302,151.126632671203,0,121021403,Asquith - Mount Colah,Sydney - North Sydney and Hornsby,POINT (151.126632671203 -33.6612736940302)
207921,Pacific Hwy Opp Playfair Rd,-33.6689368650946,151.118141239605,0,121021403,Asquith - Mount Colah,Sydney - North Sydney and Hornsby,POINT (151.118141239605 -33.6689368650946)
207922,Pacific Hwy Opp Mt Colah Uniting Church,-33.6735153569853,151.112702044358,0,121021403,Asquith - Mount Colah,Sydney - North Sydney and Hornsby,POINT (151.112702044358 -33.6735153569853)
207923,Pacific Hwy Before Yirra Rd,-33.6759237412807,151.112353478881,0,121021403,Asquith - Mount Colah,Sydney - North Sydney and Hornsby,POINT (151.112353478881 -33.6759237412807)
207924,Pacific Hwy After Yirra Rd,-33.6769018052074,151.112475558685,0,121021403,Asquith - Mount Colah,Sydney - North Sydney and Hornsby,POINT (151.112475558685 -33.6769018052074)
207925,Pacific Hwy Before Willarong Rd,-33.6787527294644,151.111550750853,0,121021403,Asquith - Mount Colah,Sydney - North Sydney and Hornsby,POINT (151.111550750853 -33.6787527294644)
208011,"Mount Kuring-gai Station, Pacific Hwy",-33.653724025114,151.136561025695,0,121021403,Asquith - Mount Colah,Sydney - North Sydney and Hornsby,POINT (151.136561025695 -33.653724025114)
208015,Pacific Hwy Before Alicia Rd,-33.658210712635,151.131194767153,0,121021403,Asquith - Mount Colah,Sydney - North Sydney and Hornsby,POINT (151.131194767153 -33.658210712635)
208016,Pacific Hwy Before Nyara Rd,-33.6568461316968,151.133467526,0,121021403,Asquith - Mount Colah,Sydney - North Sydney and Hornsby,POINT (151.133467526 -33.6568461316968)
208017,Pacific Hwy Before Glenview Rd,-33.655724434393,151.135213130813,0,121021403,Asquith - Mount Colah,Sydney - North Sydney and Hornsby,POINT (151.135213130813 -33.655724434393)
208018,Pacific Hwy Opp Mount Kuring-gai Station,-33.653734120182,151.136259833174,0,121021403,Asquith - Mount Colah,Sydney - North Sydney and Hornsby,POINT (151.136259833174 -33.653734120182)
208111,"Berowra Station, Pacific Hwy",-33.6231740273039,151.152815119048,0,121021404,Berowra - Brooklyn - Cowan,Sydney - North Sydney and Hornsby,POINT (151.152815119048 -33.6231740273039)
208112,Pacific Hwy Opp Berowra Station,-33.6225341532022,151.153355186043,0,121021404,Berowra - Brooklyn - Cowan,Sydney - North Sydney and Hornsby,POINT (151.153355186043 -33.6225341532022)
208113,Pacific Hwy Before Yallambee Rd,-33.6298356034773,151.148169851181,0,121021404,Berowra - Brooklyn - Cowan,Sydney - North Sydney and Hornsby,POINT (151.148169851181 -33.6298356034773)
208114,Pacific Hwy At Waratah Rd,-33.6267611842209,151.148226881289,0,121021404,Berowra - Brooklyn - Cowan,Sydney - North Sydney and Hornsby,POINT (151.148226881289 -33.6267611842209)
208115,"Berowra RSL, Pacific Hwy",-33.6233601806001,151.152102457965,0,121021404,Berowra - Brooklyn - Cowan,Sydney - North Sydney and Hornsby,POINT (151.152102457965 -33.6233601806001)
208116,Pacific Hwy Opp 935,-33.6298186580993,151.148406001539,0,121021404,Berowra - Brooklyn - Cowan,Sydney - North Sydney and Hornsby,POINT (151.148406001539 -33.6298186580993)
208149,Pacific Hwy After Collingridge Way,-33.6364302536738,151.145513506661,0,121021404,Berowra - Brooklyn - Cowan,Sydney - North Sydney and Hornsby,POINT (151.145513506661 -33.6364302536738)
208150,Pacific Hwy Opp Foster Way,-33.6359231714941,151.146124708286,0,121021404,Berowra - Brooklyn - Cowan,Sydney - North Sydney and Hornsby,POINT (151.146124708286 -33.6359231714941)
2120163,Pennant Hills Rd After Loch Maree Av,-33.7283820495483,151.084167667192,0,121021406,Normanhurst - Thornleigh - Westleigh,Sydney - North Sydney and Hornsby,POINT (151.084167667192 -33.7283820495483)
212024,Pennant Hills Rd At Railway Pde,-33.7317617455628,151.079518273679,0,121021406,Normanhurst - Thornleigh - Westleigh,Sydney - North Sydney and Hornsby,POINT (151.079518273679 -33.7317617455628)
212025,Pennant Hills Rd Opp Nelson St,-33.7245728105102,151.088451228983,0,121021406,Normanhurst - Thornleigh - Westleigh,Sydney - North Sydney and Hornsby,POINT (151.088451228983 -33.7245728105102)
212026,Pennant Hills Rd Before Trelawney St,-33.7257153674721,151.084698931722,0,121021406,Normanhurst - Thornleigh - Westleigh,Sydney - North Sydney and Hornsby,POINT (151.084698931722 -33.7257153674721)
212027,Pennant Hills Rd At Station St,-33.7318971359977,151.079783514262,0,121021406,Normanhurst - Thornleigh - Westleigh,Sydney - North Sydney and Hornsby,POINT (151.079783514262 -33.7318971359977)
212032,Pennant Hills Rd After Phyllis Av,-33.7273952253218,151.083764981069,0,121021406,Normanhurst - Thornleigh - Westleigh,Sydney - North Sydney and Hornsby,POINT (151.083764981069 -33.7273952253218)
213022,Parramatta Rd After Sloane St,-33.8873270432877,151.141263875879,0,120031395,Haberfield - Summer Hill,Sydney - Inner West,POINT (151.141263875879 -33.8873270432877)
213039,"Summer Hill Station, Carlton Cres",-33.890314065277,151.138448180997,0,120031395,Haberfield - Summer Hill,Sydney - Inner West,POINT (151.138448180997 -33.890314065277)
213040,Carlton Cres Opp Summer Hill Station,-33.8906281031629,151.138755083448,0,120031395,Haberfield - Summer Hill,Sydney - Inner West,POINT (151.138755083448 -33.8906281031629)
2131111,"Ashfield Station, Liverpool Rd, Stand E",-33.8889735626773,151.125245815224,0,120031677,Ashfield - South,Sydney - Inner West,POINT (151.125245815224 -33.8889735626773)
213146,"Ashfield Station, Liverpool Rd, Stand G",-33.8893873131968,151.125535866347,0,120031677,Ashfield - South,Sydney - Inner West,POINT (151.125535866347 -33.8893873131968)
213212,The Strand Opp Croydon Station,-33.8834569911261,151.114554705879,0,120031679,Croydon,Sydney - Inner West,POINT (151.114554705879 -33.8834569911261)
213220,Parramatta Rd At Croydon Rd,-33.8729977750241,151.125804369172,0,120031679,Croydon,Sydney - Inner West,POINT (151.125804369172 -33.8729977750241)
213268,"Croydon Station, The Strand",-33.8835508935764,151.114710467216,0,120031679,Croydon,Sydney - Inner West,POINT (151.114710467216 -33.8835508935764)
213460,Parramatta Rd After Burwood Rd,-33.8689071434903,151.104792893491,0,120031678,Burwood (NSW),Sydney - Inner West,POINT (151.104792893491 -33.8689071434903)
213464,"Burwood Station, Railway Pde, Stand A",-33.8771966730573,151.102900285894,0,120031678,Burwood (NSW),Sydney - Inner West,POINT (151.102900285894 -33.8771966730573)
213466,"Burwood Station, Railway Pde, Stand C",-33.8772898611671,151.102267403029,0,120031678,Burwood (NSW),Sydney - Inner West,POINT (151.102267403029 -33.8772898611671)
213516,"Strathfield Station, Albert Rd, Stand G",-33.8719101682933,151.093627318072,0,120031680,Strathfield - East,Sydney - Inner West,POINT (151.093627318072 -33.8719101682933)
2135221,Parramatta Rd Before Roberts St,-33.8677788233855,151.097825936115,0,120031680,Strathfield - East,Sydney - Inner West,POINT (151.097825936115 -33.8677788233855)
2137160,Parramatta Rd At Lloyd George Av,-33.867411030514,151.097235863173,0,120011383,Concord - Mortlake - Cabarita,Sydney - Inner West,POINT (151.097235863173 -33.867411030514)
213721,Parramatta Rd Opp Neich Pde,-33.8686491388437,151.104424075917,0,120011383,Concord - Mortlake - Cabarita,Sydney - Inner West,POINT (151.104424075917 -33.8686491388437)
214012,The Crescent Opp Homebush Station,-33.867199654782,151.086251606167,0,120031396,Homebush,Sydney - Inner West,POINT (151.086251606167 -33.867199654782)
214021,"Flemington Station, The Crescent",-33.8652394452521,151.070906850196,0,120031396,Homebush,Sydney - Inner West,POINT (151.070906850196 -33.8652394452521)
214027,"Homebush Station, The Crescent",-33.8668123776682,151.085703859721,0,120031396,Homebush,Sydney - Inner West,POINT (151.085703859721 -33.8668123776682)
214039,The Crescent After Kessell Av,-33.8654686532152,151.072149084527,0,120031396,Homebush,Sydney - Inner West,POINT (151.072149084527 -33.8654686532152)
G2000420,Kent St After Market St,-33.870371631255,151.204700425759,0,117031644,Sydney (North) - Millers Point,Sydney - City and Inner South,POINT (151.204700425759 -33.870371631255)
G2000422,Kent St After Druitt St,-33.8720848381291,151.204924998692,0,117031644,Sydney (North) - Millers Point,Sydney - City and Inner South,POINT (151.204924998692 -33.8720848381291)
G2000427,Clarence St At King St,-33.8689575418175,151.205214220527,0,117031644,Sydney (North) - Millers Point,Sydney - City and Inner South,POINT (151.205214220527 -33.8689575418175)
G200721,"Broadway Shopping Centre, Broadway",-33.8842816597411,151.196028582578,0,117031646,Ultimo,Sydney - City and Inner South,POINT (151.196028582578 -33.8842816597411)
G200815,Broadway At Buckland St,-33.8844884152123,151.197626759228,0,117031639,Chippendale,Sydney - City and Inner South,POINT (151.197626759228 -33.8844884152123)
G204079,Parramatta Rd Before Catherine St,-33.8877256177205,151.160956560767,0,120021675,Leichhardt,Sydney - Inner West,POINT (151.160956560767 -33.8877256177205)
G204518,Parramatta Rd At Haberfield Rd,-33.8866885306153,151.140692791008,0,120031395,Haberfield - Summer Hill,Sydney - Inner West,POINT (151.140692791008 -33.8866885306153)
G204670,Parramatta Rd Before Arlington St,-33.8726570249651,151.125755539879,0,120011386,Five Dock - Abbotsford,Sydney - Inner West,POINT (151.125755539879 -33.8726570249651)
G204924,Parramatta Rd Before Phillip St,-33.8882222683795,151.162255545515,0,117021327,Petersham - Stanmore,Sydney - City and Inner South,POINT (151.162255545515 -33.8882222683795)
G205016,Parramatta Rd Before Lyons Rd,-33.8862354380586,151.178601550038,0,117031331,Glebe - Forest Lodge,Sydney - City and Inner South,POINT (151.178601550038 -33.8862354380586)
G205023,Parramatta Rd At Missenden Rd,-33.8861521829653,151.179991105851,0,117031638,Camperdown - Darlington,Sydney - City and Inner South,POINT (151.179991105851 -33.8861521829653)
G206013,"Victoria Cross, Miller St",-33.8394556280509,151.20663812032,0,121041417,North Sydney - Lavender Bay,Sydney - North Sydney and Hornsby,POINT (151.20663812032 -33.8394556280509)
G206024,Miller St Before Blue St,-33.8401381259967,151.206704012983,0,121041417,North Sydney - Lavender Bay,Sydney - North Sydney and Hornsby,POINT (151.206704012983 -33.8401381259967)
G206027,"Greenwood Plaza, Pacific Hwy",-33.839853478253,151.207650996236,0,121041417,North Sydney - Lavender Bay,Sydney - North Sydney and Hornsby,POINT (151.207650996236 -33.839853478253)
G206052,"Victoria Cross, Miller St",-33.8384856019621,151.207076376711,0,121041417,North Sydney - Lavender Bay,Sydney - North Sydney and Hornsby,POINT (151.207076376711 -33.8384856019621)
G206058,Lavender St Opp Cliff St,-33.8435374895675,151.210315361262,0,121041417,North Sydney - Lavender Bay,Sydney - North Sydney and Hornsby,POINT (151.210315361262 -33.8435374895675)
G206067,Pacific Hwy At Walker St,-33.8401918933294,151.208293854609,0,121041417,North Sydney - Lavender Bay,Sydney - North Sydney and Hornsby,POINT (151.208293854609 -33.8401918933294)
G206426,Pacific Hwy Opp Cobden Av,-33.8157098721157,151.178465971839,0,121011401,St Leonards - Naremburn,Sydney - North Sydney and Hornsby,POINT (151.178465971839 -33.8157098721157)
G206429,"Gore Hill Technology Park, Pacific Hwy",-33.8197169660672,151.184371650561,0,121011401,St Leonards - Naremburn,Sydney - North Sydney and Hornsby,POINT (151.184371650561 -33.8197169660672)
G2065136,"TAFE St Leonards, Pacific Hwy",-33.8214323703216,151.185858699201,0,121011401,St Leonards - Naremburn,Sydney - North Sydney and Hornsby,POINT (151.185858699201 -33.8214323703216)
G2065137,Pacific Hwy After Falcon St,-33.8281191190671,151.201158948749,0,121041414,Crows Nest - Waverton,Sydney - North Sydney and Hornsby,POINT (151.201158948749 -33.8281191190671)
G2065141,Pacific Hwy Opp Campbell St,-33.8184042793227,151.182699205257,0,121011685,Greenwich - Riverview,Sydney - North Sydney and Hornsby,POINT (151.182699205257 -33.8184042793227)
G206524,Pacific Hwy After Shirley Rd,-33.827175824261,151.200022364866,0,121041414,Crows Nest - Waverton,Sydney - North Sydney and Hornsby,POINT (151.200022364866 -33.827175824261)
G2066223,Epping Rd After Sam Johnson Way,-33.8060974259679,151.152860488623,0,121011686,Lane Cove,Sydney - North Sydney and Hornsby,POINT (151.152860488623 -33.8060974259679)
G2066226,Pacific Hwy Opp Hotham Pde,-33.816063242704,151.178407624281,0,121011686,Lane Cove,Sydney - North Sydney and Hornsby,POINT (151.178407624281 -33.816063242704)
G2066230,Epping Rd Opp Orion Rd,-33.8059548625745,151.153080247648,0,121011399,Chatswood (West) - Lane Cove North,Sydney - North Sydney and Hornsby,POINT (151.153080247648 -33.8059548625745)
G207613,Pacific Hwy At Woolcott Av,-33.7162551119442,151.108542476486,0,121021579,Wahroonga (West) - Waitara,Sydney - North Sydney and Hornsby,POINT (151.108542476486 -33.7162551119442)
G2076145,Pacific Hwy Before Ingram Rd,-33.7156790324716,151.108795324702,0,121021579,Wahroonga (West) - Waitara,Sydney - North Sydney and Hornsby,POINT (151.108795324702 -33.7156790324716)
G207615,Pennant Hills Rd After Stuart Av,-33.7246087167525,151.08954204894,0,121021406,Normanhurst - Thornleigh - Westleigh,Sydney - North Sydney and Hornsby,POINT (151.08954204894 -33.7246087167525)
G2076150,"Normanhurst Boys High School, Pennant Hills Rd",-33.7219928034176,151.10291803316,0,121021406,Normanhurst - Thornleigh - Westleigh,Sydney - North Sydney and Hornsby,POINT (151.10291803316 -33.7219928034176)
G2076151,"Abbotsleigh College, Woonona Av",-33.7159410657075,151.113907763674,0,121031412,Wahroonga (East) - Warrawee,Sydney - North Sydney and Hornsby,POINT (151.113907763674 -33.7159410657075)
G207616,Pennant Hills Rd At Russell Av,-33.7192736423773,151.106918172976,0,121021579,Wahroonga (West) - Waitara,Sydney - North Sydney and Hornsby,POINT (151.106918172976 -33.7192736423773)
G207618,Pennant Hills Rd After Kenley Rd,-33.7235750475924,151.093267053887,0,121021406,Normanhurst - Thornleigh - Westleigh,Sydney - North Sydney and Hornsby,POINT (151.093267053887 -33.7235750475924)
G207621,"Abbotsleigh College,  Pacific Hwy",-33.7194024357482,151.115216091979,0,121031412,Wahroonga (East) - Warrawee,Sydney - North Sydney and Hornsby,POINT (151.115216091979 -33.7194024357482)
G207622,Pacific Hwy Before Lucinda Av,-33.7189059943983,151.111731191903,0,121031412,Wahroonga (East) - Warrawee,Sydney - North Sydney and Hornsby,POINT (151.111731191903 -33.7189059943983)
G2076229,"Loreto College South, Osborn Rd",-33.7260137540555,151.096887640743,0,121021406,Normanhurst - Thornleigh - Westleigh,Sydney - North Sydney and Hornsby,POINT (151.096887640743 -33.7260137540555)
G207623,Pacific Hwy Before Woonona Av,-33.718730443002,151.112402103061,0,121031412,Wahroonga (East) - Warrawee,Sydney - North Sydney and Hornsby,POINT (151.112402103061 -33.718730443002)
G207661,"Normahurst Boys High School, Denman Pde",-33.7203694405686,151.099983250985,0,121021406,Normanhurst - Thornleigh - Westleigh,Sydney - North Sydney and Hornsby,POINT (151.099983250985 -33.7203694405686)
G207664,Pacific Hwy At Carden Av,-33.7131262064372,151.107800201578,0,121021579,Wahroonga (West) - Waitara,Sydney - North Sydney and Hornsby,POINT (151.107800201578 -33.7131262064372)
G207665,Pennant Hills Rd Opp Russell Av,-33.7193262157301,151.107233374772,0,121021579,Wahroonga (West) - Waitara,Sydney - North Sydney and Hornsby,POINT (151.107233374772 -33.7193262157301)
G207666,Pennant Hills Rd Opp Normanhurst Boys High School,-33.7222598214134,151.103017022279,0,121021406,Normanhurst - Thornleigh - Westleigh,Sydney - North Sydney and Hornsby,POINT (151.103017022279 -33.7222598214134)
G207667,"Normanhurst Public School, Pennant Hills Rd",-33.7244576161972,151.097891904763,0,121021406,Normanhurst - Thornleigh - Westleigh,Sydney - North Sydney and Hornsby,POINT (151.097891904763 -33.7244576161972)
G207668,Pennant Hills Rd At Campbell Av,-33.7237124324473,151.092928524568,0,121021406,Normanhurst - Thornleigh - Westleigh,Sydney - North Sydney and Hornsby,POINT (151.092928524568 -33.7237124324473)
G207712,Pacific Hwy Before Yardley Av,-33.711693441384,151.105909773601,0,121021579,Wahroonga (West) - Waitara,Sydney - North Sydney and Hornsby,POINT (151.105909773601 -33.711693441384)
G2077157,Pacific Hwy At Edgeworth David Av,-33.7058362520085,151.099151269281,0,121021577,Hornsby - East,Sydney - North Sydney and Hornsby,POINT (151.099151269281 -33.7058362520085)
G2077158,Pacific Hwy At James St,-33.709027237619,151.100467503206,0,121021577,Hornsby - East,Sydney - North Sydney and Hornsby,POINT (151.100467503206 -33.709027237619)
G207731,Pacific Hwy Opp Bouvardia St,-33.6896145705936,151.10601109551,0,121021403,Asquith - Mount Colah,Sydney - North Sydney and Hornsby,POINT (151.10601109551 -33.6896145705936)
G207735,"Barker College, Pacific Hwy",-33.7090048041006,151.099787213905,0,121021577,Hornsby - East,Sydney - North Sydney and Hornsby,POINT (151.099787213905 -33.7090048041006)
G207736,Pacific Hwy Opp Leonard St,-33.7077749830343,151.09856431563,0,121021577,Hornsby - East,Sydney - North Sydney and Hornsby,POINT (151.09856431563 -33.7077749830343)
G207737,Pacific Hwy Opp Westfield Hornsby,-33.7051442075292,151.098827257225,0,121021577,Hornsby - East,Sydney - North Sydney and Hornsby,POINT (151.098827257225 -33.7051442075292)
G207745,Pacific Hwy At Mills Av,-33.6831437791263,151.110650007416,0,121021403,Asquith - Mount Colah,Sydney - North Sydney and Hornsby,POINT (151.110650007416 -33.6831437791263)
G207746,Pacific Hwy Opp Rupert St,-33.6806547895906,151.110984007882,0,121021403,Asquith - Mount Colah,Sydney - North Sydney and Hornsby,POINT (151.110984007882 -33.6806547895906)
G207747,Pacific Hwy Opp Mills Av,-33.6830891168451,151.11093840661,0,121021403,Asquith - Mount Colah,Sydney - North Sydney and Hornsby,POINT (151.11093840661 -33.6830891168451)
G207748,"Asquith High School, Peats Ferry Rd",-33.6907088517981,151.103724187961,0,121021403,Asquith - Mount Colah,Sydney - North Sydney and Hornsby,POINT (151.103724187961 -33.6907088517981)
G207749,Pacific Hwy Opp Asquith Bowling And Recreation Club,-33.6910934179305,151.101101636204,0,121021578,Hornsby - West,Sydney - North Sydney and Hornsby,POINT (151.101101636204 -33.6910934179305)
G207750,Pacific Hwy Opp Galston Rd,-33.6917831427084,151.098784605055,0,121021578,Hornsby - West,Sydney - North Sydney and Hornsby,POINT (151.098784605055 -33.6917831427084)
G207751,Peats Ferry Rd Opp Regis Hornsby,-33.6938647918624,151.098506324339,0,121021578,Hornsby - West,Sydney - North Sydney and Hornsby,POINT (151.098506324339 -33.6938647918624)
G207752,"Motor Registry, Pacific Hwy",-33.6965884473076,151.098431043088,0,121021578,Hornsby - West,Sydney - North Sydney and Hornsby,POINT (151.098431043088 -33.6965884473076)
G207753,"Hornsby College, Pacific Hwy",-33.699605892873,151.097377969086,0,121021578,Hornsby - West,Sydney - North Sydney and Hornsby,POINT (151.097377969086 -33.699605892873)
G207754,Pacific Hwy Opp Hornsby Park,-33.7018422650972,151.097053104538,0,121021578,Hornsby - West,Sydney - North Sydney and Hornsby,POINT (151.097053104538 -33.7018422650972)
G207913,Pacific Hwy At Rupert St,-33.6800304404857,151.110792577399,0,121021403,Asquith - Mount Colah,Sydney - North Sydney and Hornsby,POINT (151.110792577399 -33.6800304404857)
G207914,Pacific Hwy Before Yirra Rd,-33.6764775243846,151.112229006109,0,121021403,Asquith - Mount Colah,Sydney - North Sydney and Hornsby,POINT (151.112229006109 -33.6764775243846)
G207915,"Mt Colah Uniting Church, Pacific Hwy",-33.6734707052227,151.11241971947,0,121021403,Asquith - Mount Colah,Sydney - North Sydney and Hornsby,POINT (151.11241971947 -33.6734707052227)
G207916,Pacific Hwy After Playfair Rd,-33.6676167066054,151.119629961121,0,121021403,Asquith - Mount Colah,Sydney - North Sydney and Hornsby,POINT (151.119629961121 -33.6676167066054)
G207917,Pacific Hwy Before Beryl Av,-33.6646650797118,151.122484638591,0,121021403,Asquith - Mount Colah,Sydney - North Sydney and Hornsby,POINT (151.122484638591 -33.6646650797118)
G207918,"Hunt Reserve, Pacific Hwy",-33.6636539619375,151.123352241797,0,121021403,Asquith - Mount Colah,Sydney - North Sydney and Hornsby,POINT (151.123352241797 -33.6636539619375)
G207919,Pacific Hwy Before Excelsior Rd,-33.6611178825053,151.126442042442,0,121021403,Asquith - Mount Colah,Sydney - North Sydney and Hornsby,POINT (151.126442042442 -33.6611178825053)
G207920,Pacific Hwy Opp Excelsior Rd,-33.6612646980726,151.126632240981,0,121021403,Asquith - Mount Colah,Sydney - North Sydney and Hornsby,POINT (151.126632240981 -33.6612646980726)
G207921,Pacific Hwy Opp Playfair Rd,-33.6689368650946,151.118141239605,0,121021403,Asquith - Mount Colah,Sydney - North Sydney and Hornsby,POINT (151.118141239605 -33.6689368650946)
G207922,Pacific Hwy Opp Mt Colah Uniting Church,-33.6735157156448,151.112691284697,0,121021403,Asquith - Mount Colah,Sydney - North Sydney and Hornsby,POINT (151.112691284697 -33.6735157156448)
G207924,Pacific Hwy After Yirra Rd,-33.6769021638788,151.112464798599,0,121021403,Asquith - Mount Colah,Sydney - North Sydney and Hornsby,POINT (151.112464798599 -33.6769021638788)
G207925,Pacific Hwy Before Willarong Rd,-33.6787620841759,151.111540419459,0,121021403,Asquith - Mount Colah,Sydney - North Sydney and Hornsby,POINT (151.111540419459 -33.6787620841759)
G208015,Pacific Hwy Before Alicia Rd,-33.658210712635,151.131194767153,0,121021403,Asquith - Mount Colah,Sydney - North Sydney and Hornsby,POINT (151.131194767153 -33.658210712635)
G208016,Pacific Hwy Before Nyara Rd,-33.6568461316968,151.133467526,0,121021403,Asquith - Mount Colah,Sydney - North Sydney and Hornsby,POINT (151.133467526 -33.6568461316968)
G208017,Pacific Hwy Before Glenview Rd,-33.655724434393,151.135213130813,0,121021403,Asquith - Mount Colah,Sydney - North Sydney and Hornsby,POINT (151.135213130813 -33.655724434393)
G208113,Pacific Hwy Before Yallambee Rd,-33.6298528723182,151.148192222574,0,121021404,Berowra - Brooklyn - Cowan,Sydney - North Sydney and Hornsby,POINT (151.148192222574 -33.6298528723182)
G208114,Pacific Hwy At Waratah Rd,-33.6267611842209,151.148226881289,0,121021404,Berowra - Brooklyn - Cowan,Sydney - North Sydney and Hornsby,POINT (151.148226881289 -33.6267611842209)
G208115,"Berowra RSL, Pacific Hwy",-33.6233511848777,151.152102025712,0,121021404,Berowra - Brooklyn - Cowan,Sydney - North Sydney and Hornsby,POINT (151.152102025712 -33.6233511848777)
G208116,Pacific Hwy Opp 935,-33.6298283765661,151.148384926032,0,121021404,Berowra - Brooklyn - Cowan,Sydney - North Sydney and Hornsby,POINT (151.148384926032 -33.6298283765661)
G208149,Pacific Hwy After Collingridge Way,-33.6364579633433,151.145493292799,0,121021404,Berowra - Brooklyn - Cowan,Sydney - North Sydney and Hornsby,POINT (151.145493292799 -33.6364579633433)
G208150,Pacific Hwy Opp Foster Way,-33.6359235327093,151.146113953757,0,121021404,Berowra - Brooklyn - Cowan,Sydney - North Sydney and Hornsby,POINT (151.146113953757 -33.6359235327093)
G2120163,Pennant Hills Rd After Loch Maree Av,-33.7283820495483,151.084167667192,0,121021406,Normanhurst - Thornleigh - Westleigh,Sydney - North Sydney and Hornsby,POINT (151.084167667192 -33.7283820495483)
G212024,Pennant Hills Rd At Railway Pde,-33.7317797383376,151.079519126583,0,121021406,Normanhurst - Thornleigh - Westleigh,Sydney - North Sydney and Hornsby,POINT (151.079519126583 -33.7317797383376)
G212025,Pennant Hills Rd Opp Nelson St,-33.7245728105102,151.088451228983,0,121021406,Normanhurst - Thornleigh - Westleigh,Sydney - North Sydney and Hornsby,POINT (151.088451228983 -33.7245728105102)
G212026,Pennant Hills Rd Before Trelawney St,-33.7257153674721,151.084698931722,0,121021406,Normanhurst - Thornleigh - Westleigh,Sydney - North Sydney and Hornsby,POINT (151.084698931722 -33.7257153674721)
G212027,Pennant Hills Rd At Station St,-33.7318888522806,151.07976155301,0,121021406,Normanhurst - Thornleigh - Westleigh,Sydney - North Sydney and Hornsby,POINT (151.07976155301 -33.7318888522806)
G212032,Pennant Hills Rd After Phyllis Av,-33.7274042216679,151.083765407894,0,121021406,Normanhurst - Thornleigh - Westleigh,Sydney - North Sydney and Hornsby,POINT (151.083765407894 -33.7274042216679)
G213022,Parramatta Rd After Sloane St,-33.8873453973652,151.141253960719,0,120031395,Haberfield - Summer Hill,Sydney - Inner West,POINT (151.141253960719 -33.8873453973652)
G213220,Parramatta Rd At Croydon Rd,-33.8729988600207,151.125772015824,0,120031679,Croydon,Sydney - Inner West,POINT (151.125772015824 -33.8729988600207)
G213460,Parramatta Rd After Burwood Rd,-33.8689071434903,151.104792893491,0,120031678,Burwood (NSW),Sydney - Inner West,POINT (151.104792893491 -33.8689071434903)
G2135221,Parramatta Rd Before Roberts St,-33.8677788233855,151.097825936115,0,120031680,Strathfield - East,Sydney - Inner West,POINT (151.097825936115 -33.8677788233855)
G2137160,Parramatta Rd At Lloyd George Av,-33.8674200265042,151.09723629367,0,120011383,Concord - Mortlake - Cabarita,Sydney - Inner West,POINT (151.09723629367 -33.8674200265042)
G213721,Parramatta Rd Opp Neich Pde,-33.8686491388437,151.104424075917,0,120011383,Concord - Mortlake - Cabarita,Sydney - Inner West,POINT (151.104424075917 -33.8686491388437)
G214039,The Crescent After Kessell Av,-33.8654686532152,151.072149084527,0,120031396,Homebush,Sydney - Inner West,POINT (151.072149084527 -33.8654686532152)
200062,"Central Station, Railway Square, Stand K",-33.8838540913556,151.203537216428,0,117031639,Chippendale,Sydney - City and Inner South,POINT (151.203537216428 -33.8838540913556)
201511,"Green Square Station, Botany Rd, Stand A",-33.9064639912382,151.202887349284,0,117031330,Erskineville - Alexandria,Sydney - City and Inner South,POINT (151.202887349284 -33.9064639912382)
